StationId,PositionName,Area,UniqueCode,StationCode,StationPic,Longitude,Latitude,StationTypeId
4112,万寿西宫,北京市,110000252,1001A,,116.366,39.8673,1
4113,定陵(对照点),北京市,110000041,1002A,,116.17,40.2865,1
4114,东四,北京市,110000244,1003A,,116.434,39.9522,1
4115,天坛,北京市,110000245,1004A,,116.434,39.8745,1
4116,农展馆,北京市,110000247,1005A,,116.473,39.9716,1
4117,顺义新城,北京市,110000253,1008A,,116.72,40.1438,1
4118,怀柔镇,北京市,110000254,1009A,,116.644,40.3937,1
4119,昌平镇,北京市,110000255,1010A,,116.23,40.1952,1
4120,古城,北京市,110000249,1012A,,116.225,39.9279,1
4121,市监测中心(停运150702),天津市,120000051,1013A,,117.151,39.097,1
4122,南口路(停运161122),天津市,120000081,1014A,,117.193,39.173,1
4123,勤俭道,天津市,120000062,1015A,,117.145,39.1654,1
4124,南京路(停运160601),天津市,120000072,1016A,,117.184,39.1205,1
4125,大直沽八号路,天津市,120000095,1017A,,117.237,39.1082,1
4126,淮河道,天津市,120000186,1019A,,117.1837,39.2133,1
4127,天山路(停运150702),天津市,120000100,1020A,,117.269,39.1337,1
4128,跃进路,天津市,120000168,1021A,,117.307,39.0877,1
4129,梅江小区(停运150702),天津市,120000108,1022A,,117.221,39.06,1
4130,第四大街,天津市,120000143,1023A,,117.707,39.0343,1
4135,航天路(停运170426),天津市,120000301,1025A,,117.401,39.124,1
4131,团泊洼(对照点),天津市,120000005,1027A,,117.157,38.9194,1
4132,化工学校(停运150703),石家庄市,130100051,1028A,,114.5637,38.0549,1
4133,职工医院,石家庄市,130100052,1029A,,114.4548,38.0513,1
4134,高新区,石家庄市,130100054,1030A,,114.6046,38.0398,1
4136,西南高教,石家庄市,130100056,1032A,,114.4586,38.0058,1
4137,世纪公园,石家庄市,130100057,1033A,,114.5331,38.0178,1
4138,封龙山(对照点),石家庄市,130100001,1035A,defaultStation.jpg,114.3541,37.9097,1
4139,供销社(停运200110),唐山市,130200100,1036A,,118.1662,39.6308,1
4068,物资局,唐山市,130200053,1038A,,118.1853,39.6407,1
4069,陶瓷公司(停运200109),唐山市,130200051,1039A,,118.2185,39.6679,1
4070,十二中,唐山市,130200054,1040A,,118.1838,39.65782,1
4071,小山,唐山市,130200052,1041A,,118.1997,39.6295,1
4147,第一关,秦皇岛市,130300056,1043A,,119.7624,40.0181,1
4148,监测站,秦皇岛市,130300053,1044A,,119.6023,39.9567,1
4149,市政府(停运171013),秦皇岛市,130300055,1045A,,119.607,39.9358,1
4150,建设大厦,秦皇岛市,130300058,1046A,,119.5369,39.9419,1
4151,环保局(停运210416),邯郸市,130400051,1047A,defaultStation.jpg,114.5129,36.61763,1
4152,东污水处理厂,邯郸市,130400052,1048A,,114.5426,36.6164,1
4140,丛台公园,邯郸市,130400054,1050A,,114.4965,36.61981,1
4141,游泳馆,保定市,130600064,1051A,,115.493,38.8632,1
4153,接待中心,保定市,130600062,1053A,,115.4713,38.9108,1
4154,地表水厂,保定市,130600061,1054A,,115.4612,38.8416,1
4155,胶片厂,保定市,130600051,1055A,,115.442,38.8756,1
4156,监测站,保定市,130600060,1056A,,115.5214,38.8707,1
4157,探机厂(停运171012),张家口市,130700402,1058A,,114.892,40.79481,1
4158,五金库,张家口市,130700403,1059A,,114.8814,40.8115,1
4159,世纪豪园,张家口市,130700407,1060A,,114.9032,40.7688,1
4160,北泵房(对照点),张家口市,130700001,1061A,,114.904,40.8725,1
4161,中国银行,承德市,130800402,1063A,,117.9525,40.9843,1
4162,开发区,承德市,130800407,1064A,,117.963,40.9359,1
4163,文化中心,承德市,130800409,1065A,,117.8184,40.9733,1
4164,离宫(对照点),承德市,130800001,1066A,,117.9384,41.0112,1
4165,药材公司,廊坊市,131000402,1067A,,116.6838,39.5178,1
4166,环境监测监理中心(停运160601),廊坊市,131000407,1069A,,116.715,39.5571,1
4167,北华航天学院,廊坊市,131000408,1070A,,116.7464,39.5343,1
4168,沧县城建局,沧州市,130900402,1071A,,116.8854,38.2991,1
4169,市环保局,沧州市,130900401,1073A,,116.8709,38.3228,1
4170,电机北厂,衡水市,131100401,1074A,,115.6951,37.7575,1
4171,市监测站,衡水市,131100402,1075A,,115.6426,37.7379,1
4172,邢师高专,邢台市,130500401,1078A,,114.5261,37.0533,1
4173,路桥公司,邢台市,130500406,1079A,,114.5331,37.0964,1
4174,市环保局,邢台市,130500405,1080A,,114.4854,37.062,1
4175,尖草坪,太原市,140100053,1081A,,112.522,37.8873,1
4176,涧河(已停用),太原市,140100052,1082A,,112.573,37.9103,1
4177,上兰(对照点),太原市,140100001,1083A,,112.434,38.0108,1
4178,晋源,太原市,140100063,1084A,,112.469,37.7124,1
4179,小店,太原市,140100062,1085A,,112.5583,37.7394,1
4180,桃园,太原市,140100057,1086A,,112.5369,37.8692,1
4181,坞城,太原市,140100059,1087A,,112.57,37.8195,1
4458,呼市一监,呼和浩特市,150100056,1090A,,111.651,40.7579,1
4459,小召,呼和浩特市,150100051,1091A,,111.658,40.8033,1
4460,兴松小区(停运200113),呼和浩特市,150100052,1092A,,111.659,40.8452,1
4461,糖厂(停运200113),呼和浩特市,150100053,1093A,,111.608,40.8144,1
4439,二十九中,呼和浩特市,150100055,1095A,,111.7277,40.8062,1
4462,化肥厂生活区,呼和浩特市,150100058,1097A,,111.717,40.7612,1
4463,森林路(对照点),沈阳市,210100003,1098A,,123.6836,41.9339,1
4464,浑南东路,沈阳市,210100104,1099A,,123.535,41.7561,1
4465,新秀街,沈阳市,210100102,1100A,,123.439,41.7089,1
4466,沧海路（已停运）,沈阳市,210100101,1101A,,123.284,41.7694,1
4475,陵东街,沈阳市,21010099,1103A,,123.428,41.8472,1
4476,文化路,沈阳市,21010098,1104A,,123.41,41.765,1
4477,小河沿,沈阳市,21010097,1105A,,123.478,41.7775,1
4478,太原街,沈阳市,21010096,1106A,,123.3997,41.7972,1
4479,南十东路（已停运）,沈阳市,21010095,1107A,,123.3606,41.7806,1
4467,周水子,大连市,210200052,1110A,,121.565,38.95111111,1
4468,星海三站,大连市,210200053,1111A,,121.5638889,38.885,1
4469,青泥洼桥,大连市,210200054,1112A,,121.6330556,38.91194444,1
4470,傅家庄,大连市,210200055,1113A,,121.625,38.86388889,1
4471,七贤岭,大连市,210200056,1114A,,121.5180556,38.85611111,1
4472,旅顺,大连市,210200057,1115A,,121.2588889,38.80805556,1
4473,金州,大连市,210200058,1116A,,121.7481,39.1311,1
4474,开发区,大连市,210200059,1117A,,121.7769,39.0511,1
4480,食品厂,长春市,220100051,1119A,,125.323,43.9167,1
4481,客车厂,长春市,220100052,1120A,,125.287,43.91,1
4482,邮电学院,长春市,220100053,1121A,,125.2786,43.84,1
4483,劳动公园,长春市,220100054,1122A,,125.3649,43.8748,1
4484,净月潭,长春市,220100056,1124A,,125.454,43.7878,1
4485,甩湾子(对照点),长春市,220100001,1125A,,125.633,43.55,1
4486,经开区环卫处,长春市,220100059,1126A,,125.417,43.8667,1
4487,岱山公园,长春市,220100058,1128A,,125.217,43.85,1
4488,岭北(对照点),哈尔滨市,230100001,1129A,,126.542,45.755,1
4489,松北商大,哈尔滨市,230100086,1130A,,126.561,45.8167,1
4449,南岗学府路,哈尔滨市,230100082,1132A,,126.599,45.7222,1
4450,太平宏伟公园,哈尔滨市,230100061,1133A,,126.689,45.7733,1
4451,道外承德广场,哈尔滨市,230100081,1134A,,126.635,45.7667,1
3238,动力和平路,哈尔滨市,230100073,1136A,,126.6441,45.7262,1
3239,道里建国路,哈尔滨市,230100084,1137A,,126.593,45.7478,1
3240,平房东轻厂,哈尔滨市,230100085,1138A,,126.615,45.61,1
3241,呼兰师专,哈尔滨市,23010088,1139A,,126.6106,45.9819,1
3242,省农科院,哈尔滨市,23010089,1140A,,126.6206,45.6842,1
3243,虹口,上海市,310000055,1143A,,121.467,31.3008,1
3244,徐汇上师大,上海市,310000057,1144A,,121.412,31.1654,1
3245,杨浦四漂,上海市,310000052,1145A,,121.536,31.2659,1
3246,青浦淀山湖(对照点)(停运210513),上海市,310000004,1146A,defaultStation.jpg,120.978,31.0935,1
3247,静安监测站,上海市,310000056,1147A,,121.425,31.2261,1
3248,浦东川沙,上海市,310000251,1148A,,121.703,31.1907,1
3249,浦东张江,上海市,310000059,1150A,,121.577,31.2071,1
3250,迈皋桥,南京市,320100068,1151A,,118.803,32.1083,1
3251,草场门,南京市,320100054,1152A,,118.749,32.0572,1
3252,山西路,南京市,320100055,1153A,,118.778,32.0723,1
3253,中华门,南京市,320100053,1154A,,118.777,32.0144,1
3254,玄武湖,南京市,320100051,1156A,,118.795,32.0775,1
3255,浦口,南京市,320100058,1157A,,118.6414,32.0964,1
3256,奥体中心,南京市,320100057,1158A,defaultStation.jpg,118.7356,31.9996,1
3269,上方山(对照点),苏州市,320500001,1160A,,120.561,31.2472,1
3270,南门(停运210422),苏州市,320500055,1161A,defaultStation.jpg,120.628,31.2864,1
3257,轧钢厂,苏州市,320500058,1163A,,120.596,31.3264,1
3258,吴中区,苏州市,320500060,1164A,,120.613,31.2703,1
3259,苏州新区,苏州市,320500061,1165A,,120.543,31.2994,1
3260,苏州工业园区,苏州市,320500062,1166A,,120.669,31.3097,1
3261,相城区,苏州市,320500063,1167A,,120.641,31.3708,1
3262,狼山街道,南通市,320600005,1168A,defaultStation.jpg,120.913,31.96,1
3263,虹桥,南通市,320600073,1169A,,120.86,32.0005,1
3264,星湖花园,南通市,320600077,1171A,,120.94,31.93,1
3265,紫琅学院,南通市,320600078,1172A,,120.81,32.0417,1
3266,市环境监测站,连云港市,320700052,1173A,,119.176,34.5885,1
3267,洪门派出所(停运161021),连云港市,320700053,1174A,,119.141,34.5896,1
3268,墟沟核电专家村(停运161021),连云港市,320700051,1175A,,119.368,34.7507,1
3271,黄河新村,徐州市,320300051,1177A,,117.167,34.2761,1
3236,铜山兽医院(停运161026),徐州市,320300056,1179A,,117.192,34.3083,1
3198,新城区,徐州市,320300058,1180A,,117.256,34.2153,1
3199,桃园路,徐州市,320300059,1181A,,117.2458,34.2908,1
3200,农科院,徐州市,320300061,1182A,,117.2933,34.2778,1
3201,铜山区环保局(停运161026),徐州市,320300083,1183A,,117.166,34.1806,1
3202,城东财政所(停运180626),扬州市,321000407,1184A,,119.46,32.3878,1
3203,市监测站(181220停用),扬州市,321000404,1185A,,119.404,32.41,1
3204,邗江监测站,扬州市,321000408,1186A,,119.389,32.3761,1
3205,黄巷,无锡市,320200110,1189A,,120.275,31.6219,1
3206,曹张,无锡市,320200103,1190A,,120.294,31.56,1
3207,漆塘,无锡市,320200108,1191A,,120.242,31.5031,1
3208,东亭,无锡市,320200107,1192A,,120.354,31.5848,1
3209,旺庄,无锡市,320200104,1193A,,120.354,31.5475,1
3210,荣巷,无锡市,320200102,1194A,,120.245,31.5631,1
3211,堰桥,无锡市,320200109,1195A,,120.288,31.6842,1
3212,市监测站,常州市,320400101,1196A,,119.996,31.7586,1
3213,城建学校(停运161026),常州市,320400102,1197A,,119.933,31.7786,1
3214,常工院(停运161026),常州市,320400103,1198A,,119.962,31.8089,1
3215,潞城(停运161026),常州市,320400106,1199A,,120.0393,31.7638,1
3216,武进监测站,常州市,320400104,1200A,,119.935,31.7039,1
3217,环境监测站（已停运）,镇江市,321100407,1202A,,119.429,32.2056,1
3218,新区办事处,镇江市,321100413,1203A,,119.68,32.1883,1
3219,职教中心,镇江市,321100412,1204A,,119.491,32.215,1
3220,公园路,泰州市,321200405,1206A,,119.905,32.4878,1
3221,莲花,泰州市,321200406,1207A,,119.9192,32.46278,1
3222,高港区政府(停运161024),泰州市,321200407,1208A,,119.882,32.303,1
3228,钵池山,淮安市,320800401,1210A,,119.036,33.5981,1
3229,北京南路,淮安市,320800402,1211A,,119.007,33.575,1
3223,楚州区监测站,淮安市,320800413,1213A,,119.135,33.5039,1
3224,淮阴区监测站,淮安市,320800412,1214A,,119.0186,33.6297,1
3225,盐城电厂,盐城市,320900401,1215A,,120.118,33.4022,1
3226,市监测站,盐城市,320900402,1216A,,120.156,33.3942,1
3227,文峰中学(停运161025),盐城市,320900403,1217A,,120.129,33.3719,1
3230,市监测站(停运161107),宿迁市,321300401,1219A,,118.2658,33.96,1
3231,宿迁学院,宿迁市,321300402,1220A,,118.293,33.9528,1
4507,宿豫区环保局(20181206停运）,宿迁市,321300408,1222A,defaultStation.jpg,118.3214,33.9506,1
4508,滨江,杭州市,330100062,1223A,,120.211,30.21,1
4509,西溪,杭州市,330100060,1224A,,120.063,30.2747,1
4510,千岛湖(对照点)(停运210415),杭州市,330100011,1225A,defaultStation.jpg,119.026,29.635,1
4511,下沙,杭州市,330100056,1226A,,120.348,30.3058,1
4512,卧龙桥,杭州市,330100055,1227A,,120.127,30.2456,1
4513,朝晖五区(停运210415),杭州市,330100052,1229A,defaultStation.jpg,120.157,30.2897,1
4514,和睦小学,杭州市,330100051,1230A,,120.12,30.3119,1
4515,临平镇,杭州市,330100059,1231A,,120.301,30.4183,1
4516,城厢镇,杭州市,330100058,1232A,,120.27,30.1819,1
4517,万里学院,宁波市,330200056,1235A,,121.56,29.8208,1
4518,龙赛医院,宁波市,330200054,1236A,,121.713,29.9572,1
4519,三江中学(停运200303),宁波市,330200052,1237A,defaultStation.jpg,121.554,29.8906,1
4520,市政管理站（已停运）,宁波市,330200059,1238A,,121.615,29.9017,1
4521,钱湖水厂,宁波市,330200057,1239A,,121.633,29.7736,1
4522,太古小学,宁波市,330200051,1240A,,121.586,29.8633,1
4523,瓯海,温州市,330300053,1242A,,120.634,28.0089,1
4524,南浦,温州市,330300055,1243A,,120.677,27.9939,1
4525,龙湾,温州市,330300054,1244A,,120.76,27.9747,1
4526,袍江站(停运210421),绍兴市,330600052,1246A,defaultStation.jpg,120.598,30.0911,1
4527,市环保站(停运160701),绍兴市,330600051,1248A,,120.576,30.007,1
4528,城西水厂,湖州市,330500053,1250A,,120.07,30.8244,1
4529,吉山新村(停运160104),湖州市,330500051,1251A,,120.093,30.8617,1
4530,嘉兴学院,嘉兴市,330400052,1253A,,120.726,30.7478,1
4531,监测站（已停运）,嘉兴市,330400051,1254A,,120.763,30.7567,1
4532,台州环保大楼,台州市,331000051,1256A,,121.419,28.6542,1
4533,路桥田洋王,台州市,331000052,1257A,,121.377,28.5773,1
4534,定海檀枫,舟山市,330900402,1258A,,122.122,30.0203,1
4535,普陀东港,舟山市,330900401,1259A,,122.3094,29.9558,1
4536,四中(停运161031),金华市,330700401,1261A,,119.649,29.1131,1
4537,十五中,金华市,330700403,1262A,,119.647,29.077,1
4538,环保大楼,衢州市,330800401,1264A,,118.871,28.9404,1
4539,实验学校,衢州市,330800351,1265A,,118.871,28.9664,1
4502,监测站大楼,丽水市,331100401,1267A,,119.914,28.4514,1
3151,余庄前,丽水市,331100601,1269A,,119.879,28.4231,1
3152,明珠广场,合肥市,340100054,1270A,,117.196,31.7848,1
3153,三里街,合肥市,340100051,1271A,,117.307,31.8766,1
3154,董铺水库(对照点),合肥市,340100030,1273A,,117.16,31.9051,1
3155,长江中路,合肥市,340100052,1274A,,117.25,31.8572,1
3156,庐阳区,合肥市,340100201,1275A,,117.266,31.9438,1
3157,包河区,合肥市,340100203,1277A,,117.302,31.7956,1
3158,滨湖新区,合肥市,340100204,1278A,,117.278,31.7386,1
3159,高新区,合肥市,340100205,1279A,,117.1233,31.8403,1
3160,鼓山(对照点),福州市,350100001,1280A,,119.389,26.0542,1
3161,快安(停运170419),福州市,350100063,1281A,,119.414,26.0258,1
3162,杨桥西路,福州市,350100062,1284A,,119.268,26.0797,1
3163,紫阳,福州市,350100052,1285A,,119.315,26.0753,1
3164,溪东(对照点),厦门市,350200021,1286A,,118.1569444,24.81805556,1
3165,湖里(已停运),厦门市,350200073,1289A,,118.0942,24.515,1
3166,省外办,南昌市,360100053,1290A,,115.893,28.6844,1
3167,省林业公司,南昌市,360100054,1291A,,115.8886,28.6839,1
3168,京东镇政府(停运200108),南昌市,360100060,1293A,,115.973,28.6969,1
3169,建工学校,南昌市,360100061,1294A,,115.852,28.6869,1
3170,象湖,南昌市,360100062,1295A,,115.892,28.6425,1
3171,武术学校(对照点),南昌市,360100002,1296A,,115.742,28.7994,1
3129,省站,南昌市,360100052,1298A,,115.931,28.6844,1
3172,农科所,济南市,370100057,1300A,,116.93,36.67,1
3173,开发区,济南市,370100056,1301A,,117.114,36.6739,1
3174,济南化工厂(停运200106),济南市,370100051,1302A,,116.989,36.6872,1
3175,机床二厂,济南市,370100054,1304A,,116.943,36.6489,1
3176,市监测站,济南市,370100052,1305A,,117.049,36.6622,1
3177,长清党校,济南市,370100058,1306A,,116.7672,36.5464,1
3178,仰口(对照点),青岛市,370200001,1307A,,120.6659,36.2403,1
3135,市北区子站(停运210623),青岛市,370200076,1309A,defaultStation.jpg,120.3471,36.0699,1
3136,市南区东部子站,青岛市,370200077,1310A,,120.4134,36.0654,1
3137,四方区子站,青岛市,370200078,1311A,,120.3664,36.1032,1
3138,市南区西部子站,青岛市,370200079,1312A,,120.2992,36.0543,1
3988,黄岛区子站,青岛市,370200102,1314A,,120.1964,36.3083,1
3989,城阳区子站,青岛市,370200103,1315A,,120.4001,36.2403,1
3990,烟厂,郑州市,410100053,1316A,,113.6844,34.7622,1
3991,郑纺机,郑州市,410100054,1317A,,113.641,34.7745,1
3992,银行学校,郑州市,410100062,1318A,,113.675,34.8019,1
3993,经开区管委,郑州市,410100064,1320A,,113.727,34.7187,1
3994,四十七中,郑州市,410100065,1321A,,113.734,34.719,1
3981,河医大,郑州市,410100051,1323A,,113.6356,34.7538,1
3982,岗李水库(对照点),郑州市,410100004,1324A,,113.6113,34.9162,1
3983,东湖梨园,武汉市,420100055,1325A,,114.3672,30.5719,1
3984,汉阳月湖,武汉市,420100053,1326A,,114.2511,30.5514,1
3985,汉口花桥,武汉市,420100051,1327A,,114.2836,30.6197,1
3986,武昌紫阳,武汉市,420100054,1328A,,114.3006,30.5494,1
3987,青山钢花,武汉市,420100056,1329A,,114.4272,30.6103,1
3995,汉口江滩,武汉市,420100057,1331A,,114.3008,30.5947,1
3996,东湖高新(停运180213),武汉市,420100075,1332A,,114.3894,30.4822,1
4005,沉湖七壕(对照点),武汉市,420100019,1334A,,113.8531,30.2997,1
4006,经开区环保局,长沙市,430100072,1335A,,113.0833,28.2325,1
4007,高开区环保局,长沙市,430100071,1336A,,112.8872,28.2189,1
4008,马坡岭,长沙市,430100070,1337A,,113.0792,28.2053,1
4009,雨花区环保局,长沙市,430100053,1339A,,112.9956,28.1442,1
4010,伍家岭,长沙市,430100055,1340A,,112.9792,28.2597,1
3997,天心区环保局,长沙市,430100073,1342A,,112.9844,28.1178,1
3998,湖南中医药大学,长沙市,430100074,1343A,,112.8908,28.1308,1
3999,沙坪(对照点),长沙市,430100011,1344A,,112.9958,28.3586,1
4000,广雅中学,广州市,440100051,1345A,,113.235,23.1422,1
4001,市五中,广州市,440100064,1346A,,113.261,23.105,1
4002,天河职幼(已停运),广州市,440100073,1347A,,113.317,23.1358,1
4003,广东商学院,广州市,440100088,1348A,,113.348,23.0916,1
4004,市八十六中,广州市,440100089,1349A,,113.433,23.105,1
4011,花都师范,广州市,440100091,1351A,,113.215,23.3917,1
4012,市监测站,广州市,440100057,1352A,,113.26,23.1331,1
3971,麓湖,广州市,440100063,1354A,,113.281,23.1569,1
3972,帽峰山森林公园(对照点),广州市,440100001,1355A,,113.589,23.5538,1
3973,通心岭子站,深圳市,440300051,1356A,,114.1063,22.5545,1
3974,洪湖,深圳市,440300052,1357A,,114.117,22.5625,1
3975,华侨城,深圳市,440300054,1358A,,113.987,22.5417,1
4033,南海子站,深圳市,440300055,1359A,,113.9181,22.5171,1
4034,龙岗,深圳市,440300058,1361A,,114.24,22.7267,1
4035,南澳,深圳市,440300063,1363A,,114.494,22.5422,1
4036,葵涌,深圳市,440300061,1364A,,114.41,22.6342,1
4037,梅沙,深圳市,440300060,1365A,,114.297,22.5978,1
4038,观澜,深圳市,440300062,1366A,,114.085,22.75,1
4039,前山,珠海市,440400053,1368A,,113.495,22.2294,1
4040,唐家,珠海市,440400054,1369A,,113.628,22.4251,1
4041,斗门,珠海市,440400055,1370A,,113.299,22.2281,1
4042,湾梁,佛山市,440600401,1371A,,113.134,23.0048,1
4043,华材职中,佛山市,440600402,1372A,,113.105,23.0395,1
4044,南海气象局,佛山市,440600404,1373A,,113.144,23.0467,1
4045,容桂街道办(停运210413),佛山市,440600406,1375A,defaultStation.jpg,113.257,22.7629,1
4046,高明孔堂,佛山市,440600407,1376A,,112.844,22.8693,1
4047,三水监测站,佛山市,440600408,1377A,,112.885,23.1572,1
4048,三水云东海,佛山市,440600409,1378A,,112.863,23.1886,1
4049,华柏园,中山市,442000051,1379A,,113.3769,22.5211,1
4050,张溪,中山市,442000052,1380A,,113.3881,22.5497,1
4022,长江旅游区(对照点),中山市,442000010,1382A,,113.4411,22.4853,1
4023,北街,江门市,44070051,1383A,,113.104,22.6069,1
4051,圭峰西,江门市,44070054,1385A,,113.0219,22.5311,1
4052,东湖(210101对照变更评价),江门市,440700001,1386A,defaultStation.jpg,113.0819,22.5931,1
4053,东城主山(停运210426),东莞市,441900403,1387A,defaultStation.jpg,113.7819,23.0536,1
4054,南城元岭(停运210418),东莞市,441900401,1388A,defaultStation.jpg,113.7461,23.0278,1
4055,莞城梨川,东莞市,441900402,1389A,,113.7480556,23.06,1
4056,南城西平,东莞市,441900405,1391A,,113.7383333,22.96583333,1
4057,河南岸金山湖子站,惠州市,441300752,1392A,,114.4183,23.0528,1
4058,下埔横江三路子站,惠州市,441300751,1393A,,114.4053,23.08,1
4059,惠阳区承修路船湖子站,惠州市,441300402,1395A,,114.3244,22.8172,1
4060,大亚湾管委会子站,惠州市,441300403,1396A,,114.5317,22.7422,1
4061,睦岗子站,肇庆市,441200401,1397A,,112.427,23.0706,1
4062,城中子站,肇庆市,441200402,1398A,,112.471,23.0528,1
4063,七星岩子站(对照点),肇庆市,441200001,1400A,,112.4722,23.0786,1
4064,二十一中,南宁市,450100051,1401A,defaultStation.jpg,108.301,22.7875,1
4065,北湖,南宁市,450100052,1402A,,108.316,22.8561,1
4066,市监测站,南宁市,450100054,1403A,,108.321,22.8225,1
3673,仙葫(对照点),南宁市,450100010,1405A,,108.439,22.7906,1
3674,区农职院,南宁市,450100057,1406A,,108.239,22.8464,1
3675,沙井镇街道办,南宁市,450100126,1408A,,108.244,22.7833,1
3676,东寨港(对照点),海口市,460100001,1409A,,110.576,19.9507,1
3684,秀英海南医院,海口市,460100053,1411A,,110.283,20.0053,1
3677,龙华路环保局宿舍,海口市,460100051,1413A,,110.33,20.0356,1
3678,缙云山（对照点）,重庆市,500000010,1414A,,106.379,29.8272,1
3679,高家花园(停运161118),重庆市,500000122,1415A,,106.46,29.5736,1
3680,两路,重庆市,500000135,1417A,,106.626,29.7228,1
3681,虎溪,重庆市,500000164,1418A,defaultStation.jpg,106.296,29.5983,1
3682,南坪,重庆市,500000111,1419A,,106.5777,29.5101,1
3683,唐家沱,重庆市,500000153,1420A,,106.65,29.6219,1
3685,白市驿,重庆市,500000156,1422A,defaultStation.jpg,106.3753,29.4572,1
3686,杨家坪(停运161118),重庆市,500000110,1424A,,106.512,29.5164,1
3687,空港,重庆市,500000172,1425A,,106.6205,29.7166,1
3688,新山村,重庆市,500000140,1426A,,106.468,29.4892,1
3689,礼嘉,重庆市,500000166,1427A,,106.562,29.6453,1
3690,蔡家,重庆市,500000174,1428A,,106.452,29.709,1
3691,鱼新街,重庆市,500000145,1429A,,106.513,29.389,1
3692,南泉(停运161119),重庆市,500000173,1430A,,106.591,29.4272,1
3693,金泉两河,成都市,510100075,1431A,,103.9728,30.7236,1
3694,三瓦窑,成都市,510100073,1433A,,104.079,30.5706,1
3695,沙河铺,成都市,510100054,1434A,,104.1114,30.63,1
3696,梁家巷(停运171027),成都市,510100064,1435A,,104.074,30.685,1
3697,草堂寺（已停运）,成都市,510100052,1436A,,104.026,30.6544,1
3698,灵岩寺(对照点),成都市,510100008,1438A,,103.613,31.0283,1
3699,市环保站,贵阳市,520100052,1440A,,106.6971,26.5689,1
3665,燕子冲,贵阳市,520100059,1442A,,106.7487,26.6343,1
3666,碧云窝,贵阳市,520100057,1443A,,106.6554,26.4364,1
3717,中院村,贵阳市,520100056,1444A,,106.6948,26.5155,1
3718,红边门,贵阳市,520100054,1445A,,106.7105,26.6009,1
3719,新华路,贵阳市,520100053,1446A,,106.7164,26.5697,1
3720,太慈桥,贵阳市,520100051,1447A,,106.6867,26.5495,1
3721,关上(180930停用),昆明市,530100054,1449A,,102.743,25.0124,1
3722,西山森林公园(对照点),昆明市,530100049,1451A,,102.625,24.9624,1
3723,龙泉镇,昆明市,530100055,1452A,,102.728,25.0836,1
3724,东风东路,昆明市,530100056,1453A,,102.722,25.0405,1
3725,碧鸡广场,昆明市,530100052,1455A,,102.638,25.0359,1
3726,八廓街,拉萨市,540100052,1456A,,91.1319,29.6514,1
3727,市环保局,拉萨市,540100053,1457A,,91.1221,29.6747,1
3728,区监测站,拉萨市,540100051,1458A,,91.0874,29.6475,1
3729,拉萨火车站,拉萨市,540100055,1461A,,91.0834,29.6292,1
3730,高压开关厂,西安市,610100059,1462A,,108.882,34.2749,1
3731,兴庆小区,西安市,610100052,1463A,,108.993,34.2629,1
3732,纺织城,西安市,610100091,1464A,,109.06,34.2572,1
3733,小寨,西安市,610100092,1465A,,108.94,34.2324,1
3734,市人民体育场,西安市,610100055,1466A,,108.954,34.2713,1
3741,经开区,西安市,610100053,1468A,,108.935,34.3474,1
3735,阎良区(停运210419),西安市,610100056,1470A,defaultStation.jpg,109.2,34.6575,1
3736,临潼区,西安市,610100057,1471A,,109.2186,34.3731,1
3737,草滩(对照点),西安市,610100001,1472A,,108.869,34.378,1
3738,曲江文化产业集团,西安市,610100061,1473A,,108.985,34.1978,1
3739,广运潭,西安市,610100062,1474A,,109.043,34.3274,1
3740,职工医院(181115停运),兰州市,620100053,1475A,,103.712,36.0756,1
3742,榆中兰大校区(对照点),兰州市,620100001,1477A,,104.148,35.94,1
3743,生物制品所,兰州市,620100051,1478A,,103.841,36.0725,1
3711,市环境监测站(停运210419),西宁市,630100056,1480A,defaultStation.jpg,101.748,36.6428,1
3744,第五水厂(对照点),西宁市,630100008,1483A,,101.524,36.6867,1
3745,贺兰山马莲口(对照点),银川市,640100001,1484A,,105.9512,38.6016,1
3746,银湖巷(停运160703),银川市,640100056,1485A,,106.2682,38.4744,1
3747,宁化生活区(停运160703),银川市,640100058,1487A,,106.0715,38.4858,1
3748,贺兰山东路,银川市,640100059,1488A,,106.2328,38.4975,1
4361,收费所,乌鲁木齐市,650100051,1491A,,87.6046,43.768,1
4362,新疆农科院农场(对照点),乌鲁木齐市,650100002,1492A,,87.4754,43.9469,1
4363,铁路局,乌鲁木齐市,650100056,1493A,,87.5525,43.8711,1
4352,七十四中学(停运170210),乌鲁木齐市,650100072,1495A,,87.4171,43.8729,1
4353,米东区环保局,乌鲁木齐市,650100091,1496A,,87.6444,43.962,1
4354,板塘,湘潭市,430300054,1508A,,112.9433,27.8614,1
4355,市监测站,湘潭市,430300051,1511A,,112.9118,27.8403,1
4356,江麓,湘潭市,430300052,1512A,,112.8937,27.8728,1
4357,岳塘,湘潭市,430300053,1513A,,112.9227,27.8159,1
4358,科大,湘潭市,430300055,1514A,,112.9074,27.9119,1
4359,天台山庄,株洲市,430200025,1515A,,113.135,27.8244,1
4360,株冶医院,株洲市,430200022,1518A,,113.095,27.8867,1
4364,火车站,株洲市,430200024,1520A,,113.143,27.8381,1
4365,市监测站,株洲市,430200023,1524A,,113.13,27.8528,1
4366,441200403,肇庆市,4412004034,1533A,,112.4722,23.0786,1
4367,桐木岭(对照点),贵阳市,520100050,1552A,,106.805,26.3003,1
4368,大京风景区(对照点),株洲市,430200021,1559A,,113.251,27.8336,1
4370,韶山(对照点),湘潭市,430300011,1564A,,112.4876,27.9164,1
4371,市环境监测站,包头市,150200082,1585A,,109.8756,40.6532,1
4372,包百大楼(停用200107),包头市,150200083,1586A,,109.8104,40.6575,1
4373,包头八中,包头市,150200084,1587A,defaultStation.jpg,110.0067,40.5905,1
4374,惠龙物流,包头市,150200086,1589A,,109.8654,40.6288,1
4375,东河鸿龙湾,包头市,150200087,1590A,,110.0377,40.5546,1
4376,综合楼,鄂尔多斯市,150600551,1591A,,110.0023,39.8129,1
4377,巴音孟克林场办事处,鄂尔多斯市,150600554,1592A,,109.9486,39.8261,1
4378,华泰汽车城,鄂尔多斯市,150600556,1594A,,109.8119,39.5989,1
4379,奥林花园,鄂尔多斯市,150600557,1595A,,109.9734,39.7884,1
4380,学府南路(停运211214),营口市,210800401,1596A,defaultStation.jpg,122.2414,40.6592,1
4381,大庆路,营口市,210800403,1597A,,122.2703,40.7094,1
4382,镜湖西路,营口市,210800405,1598A,,122.215,40.6511,1
4387,江湾东路,丹东市,210600401,1600A,,124.3303,40.0625,1
4383,元宝山,丹东市,210600403,1602A,,124.3933,40.1461,1
4384,民主桥,丹东市,210600404,1603A,,124.3678,40.1194,1
4385,开发区,盘锦市,211100401,1604A,,122.0247,41.1556,1
4386,兴隆台,盘锦市,211100402,1605A,,122.0539,41.0903,1
4388,龙港区,葫芦岛市,211400051,1607A,,120.9092,40.7136,1
4389,新区,葫芦岛市,211400053,1609A,,120.8478,40.715,1
4390,东城区,葫芦岛市,211400054,1610A,,120.8631,40.7736,1
4391,津头埔,泉州市,350500052,1612A,,118.5972,24.8978,1
3572,万安,泉州市,350500053,1613A,,118.6663,24.9424,1
3573,清源山(对照点),泉州市,350500050,1614A,,118.6108,24.9617,1
3574,植物油厂(停运170603),济南市,371200051,1615A,,117.685,36.205,1
3575,技术学院,济南市,371200052,1616A,,117.6789,36.2289,1
3576,沂河小区,临沂市,371300051,1618A,,118.3418,35.0573,1
3577,鲁南制药厂,临沂市,371300052,1619A,,118.295,35.0583,1
3578,新光毛纺厂,临沂市,371300053,1620A,,118.2764,34.9817,1
3579,黑马集团(停运170613),德州市,371400053,1623A,,116.2729,37.4504,1
4491,监理站,德州市,371400054,1624A,,116.3189,37.4489,1
3580,区政府,聊城市,371500051,1625A,,115.9848,36.4372,1
3581,党校(20190222停运),聊城市,371500053,1627A,,115.9835,36.4796,1
3582,第二水厂,滨州市,371600052,1629A,,118.0018,37.3617,1
3583,北中新校,滨州市,371600053,1630A,,117.9776,37.393,1
3584,人民公园,淄博市,370300051,1631A,,118.0482,36.8088,1
3585,东风化工厂(停运201108),淄博市,370300052,1632A,defaultStation.jpg,118.0448,36.838,1
3586,双山,淄博市,370300053,1633A,,117.8477,36.497,1
3587,气象站,淄博市,370300054,1634A,,117.9544,36.6377,1
3588,三金集团(停运210418),淄博市,370300056,1636A,defaultStation.jpg,117.8512,36.8041,1
3589,市中区政府,枣庄市,370400051,1637A,,117.5564,34.864,1
3590,薛城环保局,枣庄市,370400052,1638A,,117.2852,34.7837,1
3591,峄城区政府,枣庄市,370400053,1639A,,117.5852,34.7745,1
3592,台儿庄区环保局,枣庄市,370400054,1640A,,117.732,34.5667,1
3593,开发区,烟台市,370600449,1642A,,121.2514,37.5639,1
3594,轴承厂,烟台市,370600450,1643A,,121.3719,37.5433,1
3595,西郊化工站,烟台市,370600451,1644A,,121.3181,37.5436,1
3596,福山环保局,烟台市,370600453,1646A,,121.2611,37.4967,1
3597,牟平环保局(停运170519),烟台市,370600454,1647A,,121.5953,37.3872,1
3598,仲裁委(停运210414),潍坊市,370700051,1648A,defaultStation.jpg,119.12,36.7019,1
3599,刘家园（已停运）,潍坊市,370700052,1649A,,119.0919,36.7306,1
3600,共达公司（已停运）,潍坊市,370700054,1651A,,119.1614,36.6572,1
3601,寒亭监测站(停运211124),潍坊市,370700055,1652A,defaultStation.jpg,119.1939,36.7731,1
3602,火炬城,济宁市,370800051,1653A,,116.6305,35.428,1
3603,监测站(停运200103),济宁市,370800052,1654A,,116.5856,35.4144,1
3655,监测站,泰安市,370900051,1656A,,117.1436,36.1942,1
4221,电力学校,泰安市,370900053,1658A,,117.1081,36.1758,1
4222,监测站,日照市,371100051,1659A,,119.4641,35.4178,1
4223,港务局,日照市,371100053,1661A,,119.54,35.3962,1
4224,华夏技校,威海市,371000106,1662A,,122.1206,37.4294,1
4242,市监测站,威海市,371000102,1664A,,122.1067,37.5072,1
4243,西城阳光环保公司(停运210415),东营市,370500051,1665A,defaultStation.jpg,118.5019,37.4658,1
4225,耿井村(停运20201117),东营市,370500053,1667A,defaultStation.jpg,118.5857,37.4442,1
4226,广南水库(停运170301),东营市,370500054,1668A,,118.8192,37.3781,1
4227,市八中,韶关市,440200052,1669A,,113.586606,24.769519,1
4228,碧湖山庄(停运210423),韶关市,440200053,1670A,defaultStation.jpg,113.5594,24.8112,1
4229,园林处,韶关市,440200054,1671A,,113.598061,24.795928,1
4230,曲江监测站,韶关市,440200056,1673A,,113.5970833,24.68636111,1
4231,金平子站,汕头市,440500051,1674A,,116.6794,23.3667,1
4232,龙湖子站,汕头市,440500052,1675A,,116.7244,23.3633,1
4233,澄海子站,汕头市,440500055,1677A,,116.7519,23.4714,1
4234,潮阳子站,汕头市,440500056,1678A,,116.6092,23.2539,1
4235,潮南子站(停运210420),汕头市,440500057,1679A,defaultStation.jpg,116.4019,23.2536,1
4236,湛江影剧院,湛江市,440800051,1680A,,110.3539,21.2706,1
4237,市环境监测站,湛江市,440800052,1681A,,110.3928,21.2228,1
4238,环保局宿舍,湛江市,440800053,1682A,,110.4019,21.1997,1
4239,麻章区环保局,湛江市,440800056,1684A,,110.3316,21.2679,1
4240,坡头区环保局,湛江市,440800055,1685A,,110.4558,21.2567,1
4241,电白南海,茂名市,440900001,1686A,defaultStation.jpg,111.0286,21.4689,1
4244,健康路,茂名市,440900402,1688A,,110.9067,21.6669,1
4245,高岭,茂名市,440900403,1689A,,110.8592,21.6828,1
4490,梅江月梅,梅州市,441400001,1690A,defaultStation.jpg,116.1278,24.3289,1
4250,环境监控中心,梅州市,441400405,1692A,,116.1248,24.2654,1
4246,市政府,汕尾市,441500402,1694A,,115.3706,22.7898,1
4247,新城中学,汕尾市,441500403,1695A,,115.3622,22.7925,1
4248,源西(对照点),河源市,441600001,1696A,,114.6778,23.7569,1
4249,东埔,河源市,441600401,1697A,,114.6944,23.7586,1
4251,鸳鸯湖(对照点),阳江市,441700001,1699A,,111.9786,21.8586,1
4252,南恩路(停运210413),阳江市,441700403,1700A,defaultStation.jpg,111.9508,21.8536,1
4304,环保大楼(对照点),清远市,441800001,1702A,,113.0425,23.6936,1
4253,高新区(停运161222),清远市,441800402,1704A,,113.0622,23.6272,1
3300,西园路(对照点),潮州市,445100001,1705A,,116.6339,23.6714,1
3301,档案局,潮州市,445100402,1706A,,116.6447,23.6706,1
3295,新兴,揭阳市,445200401,1708A,,116.3697,23.5353,1
3296,西马,揭阳市,445200403,1709A,,116.3242,23.5486,1
3297,东兴,揭阳市,445200402,1710A,,116.3594,23.5739,1
3298,新市府(对照点),云浮市,445300001,1712A,,112.0392,22.9169,1
3299,市监测站(停运210413),云浮市,445300401,1713A,defaultStation.jpg,112.0369,22.9394,1
3302,市监测站(停运161222),玉溪市,530400052,1716A,,102.5433,24.3603,1
3303,大营街镇(停运161222),玉溪市,530400053,1717A,,102.4964,24.3411,1
3304,市政协,菏泽市,371700052,1719A,,115.474722,35.2375,1
3305,菏泽学院(停运210608),菏泽市,371700055,1720A,defaultStation.jpg,115.455,35.27,1
3306,果树场(对照点),大同市,140200005,1721A,,113.3819,40.1097,1
3307,红旗广场(停运160601),大同市,140200082,1722A,,113.2858,40.0958,1
3308,云冈宾馆,大同市,140200083,1723A,,113.2994,40.0758,1
3325,安家小村,大同市,140200087,1725A,,113.2661,40.1269,1
3326,教育学院,大同市,140200088,1726A,,113.2711,40.0844,1
3309,监测站,长治市,140400052,1728A,,113.0972,36.1939,1
3310,澳瑞特（已停运）,长治市,140400054,1729A,,113.1466,36.1961,1
3311,审计局,长治市,140400055,1730A,,113.0886,36.2126,1
3312,长治八中,长治市,140400056,1731A,,113.0844444,36.1855,1
3313,市监测站(停运161122),临汾市,141000068,1732A,,111.5125,36.0978,1
3314,技工学校,临汾市,141000071,1734A,,111.5028,36.0714,1
3315,工商学校(停运210420),临汾市,141000072,1735A,defaultStation.jpg,111.5169,36.0822,1
3316,市委,临汾市,141000073,1736A,,111.5025,36.0875,1
3317,尧庙镇(停运191230),临汾市,141000074,1737A,,111.4917,36.0417,1
3318,市中心,阳泉市,140300051,1738A,,113.5753,37.8564,1
3319,赛鱼,阳泉市,140300052,1739A,,113.4922,37.8792,1
3320,白羊墅(停运210414),阳泉市,140300054,1741A,defaultStation.jpg,113.6292,37.8531,1
3321,平坦,阳泉市,140300055,1742A,,113.5689,37.8694,1
3322,大阳泉,阳泉市,140300057,1743A,,113.5158,37.85,1
3323,松山一中,赤峰市,150400441,1744A,,118.9233,42.2814,1
3324,哈达街,赤峰市,150400442,1745A,,118.9572,42.2725,1
3327,松山路(停运170524),赤峰市,150400447,1747A,,119.2719,42.0317,1
3397,太阳城,鞍山市,210300052,1749A,,123.011,41.0931,1
3398,太平,鞍山市,210300053,1750A,,123.0485,41.1442,1
3399,铁西三道街,鞍山市,210300054,1751A,,122.9642,41.0971,1
3400,铁西工业园区,鞍山市,210300080,1752A,,122.9481,41.0833,1
3401,明达新区,鞍山市,210300055,1753A,,123.0156,41.0831,1
3402,千山(对照点),鞍山市,210300001,1754A,,123.1289,41.0228,1
3403,望花区,抚顺市,210400055,1755A,,123.81,41.8469,1
3404,顺城区,抚顺市,210400052,1756A,,123.9169,41.8828,1
3405,东洲区,抚顺市,210400053,1757A,,124.0383,41.8625,1
3406,新抚区,抚顺市,210400051,1758A,defaultStation.jpg,123.9247,41.8642,1
3407,沈抚新城,抚顺市,210400056,1760A,,123.7117,41.8417,1
3408,大峪,本溪市,210500355,1761A,,123.8436,41.3283,1
3409,溪湖,本溪市,210500405,1762A,,123.7528,41.3369,1
3410,彩屯,本溪市,210500410,1763A,,123.717,41.3094,1
3411,东明,本溪市,210500420,1764A,,123.7669,41.2864,1
3412,新立屯,本溪市,210500425,1765A,,123.7989,41.2692,1
3429,南山,锦州市,210700351,1767A,,121.0986,41.0781,1
3430,开发区,锦州市,210700402,1768A,,121.045,40.8333,1
3413,天安街道,锦州市,210700404,1770A,,121.1178,41.1222,1
3414,北湖公园,锦州市,210700405,1771A,,121.1303,41.1386,1
3415,哈达湾,吉林市,220200102,1772A,,126.555,43.8875,1
3423,电力学院,吉林市,220200104,1774A,,126.4978,43.8228,1
3424,江北,吉林市,220200105,1775A,,126.5786,43.8947,1
3425,江南公园,吉林市,220200115,1776A,,126.55,43.8256,1
3426,农科院（已停运）,吉林市,220200108,1777A,,126.4739,43.9531,1
3427,丰满(对照点),吉林市,220200005,1778A,,126.6772,43.7256,1
3428,安居小区,齐齐哈尔市,230200401,1779A,,123.9305,47.3636,1
3416,农牧车辆厂,齐齐哈尔市,230200403,1781A,,123.9483,47.3227,1
3417,富区环保局(停运191231),齐齐哈尔市,230200404,1782A,,123.6261,47.203,1
3418,市环境监测站,齐齐哈尔市,230200405,1783A,,123.945,47.2988,1
3419,环保大楼,牡丹江市,231000355,1784A,,129.61,44.561,1
3420,文化广场,牡丹江市,231000441,1785A,,129.6115,44.5782,1
3421,第一医院,牡丹江市,231000442,1786A,,129.5902,44.5952,1
3422,机车工厂,牡丹江市,231000443,1787A,,129.6459,44.6104,1
3431,大同区,大庆市,230600061,1789A,,124.8354,46.0347,1
3432,龙凤区,大庆市,230600062,1790A,,125.112,46.528,1
3479,萨尔图区,大庆市,230600081,1792A,,125.1386,46.5776,1
3480,让胡路区,大庆市,230600082,1793A,,124.8648,46.6219,1
3433,科创中心,芜湖市,340200445,1795A,,118.37,31.4189,1
3434,四水厂,芜湖市,340200446,1796A,,118.3667,31.3139,1
3955,济民医院(对照点)(停运210420),芜湖市,340200020,1797A,defaultStation.jpg,118.4022,31.3839,1
3956,湖东路四小,马鞍山市,340500105,1798A,,118.5058,31.6861,1
3932,慈湖,马鞍山市,340500107,1800A,defaultStation.jpg,118.5106,31.7506,1
3933,马钢动力厂(停运210419),马鞍山市,340500108,1801A,defaultStation.jpg,118.48,31.6928,1
3934,濮塘(对照点),马鞍山市,340500010,1802A,defaultStation.jpg,118.6439,31.7133,1
3935,十里,九江市,360400051,1803A,,115.9872,29.6816,1
3936,茅山头,九江市,360400052,1804A,,115.9581,29.7048,1
3937,西园,九江市,360400053,1805A,,115.988,29.7292,1
3938,五七二七厂,九江市,360400061,1806A,,116.0174,29.6535,1
3939,水科所（20181128停用）,九江市,360400062,1807A,,116.0628,29.6926,1
3940,石化总厂,九江市,360400064,1809A,,116.0726,29.7534,1
3941,庐山气象台(对照点),九江市,360400049,1810A,,115.9936,29.5867,1
3942,中信二小(停运210426),洛阳市,410300051,1811A,defaultStation.jpg,112.3628,34.6692,1
3943,市委党校,洛阳市,410300052,1812A,,112.3939,34.6511,1
3944,市监测站(停运161206),洛阳市,410300053,1813A,,112.4333,34.67,1
3945,豫西宾馆,洛阳市,410300054,1814A,,112.4664,34.6869,1
3946,河南林校,洛阳市,410300055,1815A,,112.4831,34.6869,1
3947,市委新办公区,洛阳市,410300057,1817A,,112.4275,34.6258,1
3948,棉研所(对照点),安阳市,410500001,1818A,,114.483,36.061,1
3949,红庙街,安阳市,410500055,1819A,,114.32,36.086,1
3950,环保局(停运171207),安阳市,410500058,1821A,,114.3931,36.0883,1
3951,铁佛寺(停运200115),安阳市,410500054,1822A,,114.286,36.11,1
3952,河大一附院(停运180109),开封市,410200061,1823A,,114.3406,34.8022,1
3953,肿瘤医院,开封市,410200062,1824A,,114.3389,34.7781,1
3954,妇幼保健院(20190322停运),开封市,410200063,1825A,,114.3733,34.7975,1
3957,市监测站(停运180720),焦作市,410800052,1827A,,113.261,35.235,1
3958,市环保局,焦作市,410800056,1828A,,113.227,35.2125,1
3959,影视城(对照点),焦作市,410800002,1830A,,113.1992,35.259,1
3960,高压开关厂(20190304停运),平顶山市,410400057,1831A,,113.3064,33.7214,1
3961,新华旅馆,平顶山市,410400053,1832A,,113.322,33.721,1
3962,规划设计院,平顶山市,410400058,1833A,,113.292,33.739,1
3887,市政府,三门峡市,411200403,1835A,,111.1928,34.7772,1
3888,开发区,三门峡市,411200406,1836A,,111.158,34.794,1
3911,风景区(对照点),三门峡市,411200003,1838A,,111.1489,34.7997,1
3776,白龙岗,宜昌市,420500065,1840A,,111.2992,30.69806,1
3777,伍家岗,宜昌市,420500053,1841A,,111.3547,30.64639,1
3778,点军区,宜昌市,420500066,1842A,,111.2628,30.69667,1
3779,夷陵区,宜昌市,420500067,1843A,,111.3275,30.78194,1
3780,市委党校,荆州市,421000052,1845A,,112.2068,30.3515,1
3781,科融环保（181220停用）,荆州市,421000056,1846A,,112.2887,30.3055,1
3782,南湖风景区,岳阳市,430600051,1847A,,113.1094,29.3578,1
3783,城陵矶,岳阳市,430600053,1848A,,113.1493,29.4251,1
3784,云溪区,岳阳市,430600054,1850A,,113.2621,29.4758,1
3785,君山区,岳阳市,430600055,1851A,,112.9943,29.4402,1
3786,金凤水库(对照点),岳阳市,430600050,1852A,,113.2117,29.355,1
3787,市二中,常德市,430700054,1854A,,111.6975,28.9703,1
3788,鼎城区环保局(停运171130),常德市,430700051,1855A,,111.6753,29.0239,1
3789,市技术监督局(停运171201),常德市,430700053,1856A,,111.6794,29.0381,1
3790,白鹤山(对照点),常德市,430700049,1857A,,111.7158,29.1456,1
3791,永定新区,张家界市,430800051,1858A,,110.48,29.1389,1
3792,电业局,张家界市,430800052,1859A,,110.4697,29.1242,1
3774,袁家界(对照点),张家界市,430800050,1861A,,110.4417,29.315,1
3775,电子科大尧山校区(对照点),桂林市,450300015,1862A,,110.4144,25.3167,1
3763,龙隐路小学,桂林市,450300063,1864A,,110.3089,25.2708,1
3764,八中,桂林市,450300095,1865A,,110.2869,25.2178,1
3765,牛尾岭水库(对照点),北海市,450500009,1866A,,109.2256,21.5958,1
3766,新市环保局,北海市,450500122,1868A,,109.0981,21.4661,1
3767,北海工业园,北海市,450500123,1869A,,109.1778,21.5233,1
3768,柳东小学,柳州市,450200421,1870A,,109.4883,24.3898,1
3769,河西水厂,柳州市,450200410,1872A,,109.3886,24.3406,1
3770,市四中,柳州市,450200413,1873A,,109.4221,24.299,1
3771,市九中,柳州市,450200419,1874A,,109.3957,24.3663,1
3772,古亭山,柳州市,450200420,1875A,,109.4839,24.3158,1
3773,河东子站,三亚市,460200053,1876A,,109.5078,18.2489,1
3793,市人大,绵阳市,510700052,1879A,,104.7536,31.4539,1
3794,高新区自来水公司,绵阳市,510700054,1880A,,104.6717,31.4656,1
3795,三水厂,绵阳市,510700053,1881A,,104.7283,31.5072,1
3796,石马中学(对照点),宜宾市,511500006,1882A,,104.5969,28.8194,1
3382,市委,宜宾市,511500061,1883A,,104.6225,28.76611,1
3383,宜宾四中,宜宾市,511500062,1884A,,104.6061,28.7867,1
3365,黄金嘴,宜宾市,511500064,1886A,,104.5761,28.71583,1
3366,沙坪中学(停运200627),宜宾市,511500066,1887A,defaultStation.jpg,104.6789,28.7989,1
3367,弄弄坪,攀枝花市,510400052,1888A,,101.68912,26.57098,1
3368,河门口,攀枝花市,510400054,1889A,,101.5769,26.5928,1
3369,炳草岗,攀枝花市,510400051,1890A,,101.7169,26.585,1
3370,金江（已停运）,攀枝花市,510400055,1892A,,101.8472,26.5569,1
3371,九狮山(对照点),泸州市,510500050,1893A,,105.4306,28.9583,1
3372,小市上码头,泸州市,510500401,1894A,,105.4436,28.9026,1
3373,兰田宪桥,泸州市,510500404,1895A,,105.4322,28.8558,1
3384,大塘山(对照点)(停运210414),自贡市,510300002,1897A,defaultStation.jpg,104.7547,29.3628,1
3385,盐马路(停运170114),自贡市,510300100,1898A,,104.7214,29.3586,1
3394,春华路(停运211219),自贡市,510300102,1900A,defaultStation.jpg,104.7692,29.3411,1
3374,西小区,德阳市,510600751,1902A,,104.3883,31.1333,1
3375,市检察院(停运210128),德阳市,510600752,1903A,defaultStation.jpg,104.4053,31.1167,1
3376,耐火材料厂,德阳市,510600753,1904A,,104.3539,31.1108,1
3377,西山风景区(对照点),南充市,511300004,1905A,,106.056,30.8064,1
3378,南充市委,南充市,511300060,1906A,,106.0789,30.8023,1
3379,南充炼油厂,南充市,511300053,1907A,,106.1031,30.8217,1
3380,高坪区监测站,南充市,511300062,1908A,,106.1064,30.7856,1
3381,嘉陵区环保局,南充市,511300064,1909A,,106.0642,30.7636,1
3386,丁字口,遵义市,520300051,1911A,,106.9222,27.6869,1
3387,凤凰山,遵义市,520300351,1912A,,106.9242,27.7019,1
3388,忠庄,遵义市,520300401,1913A,,106.8906,27.6486,1
3389,舟水桥(190215启用),遵义市,520300402,1914A,,106.9231,27.6506,1
3390,烟厂办公区,曲靖市,530300052,1917A,,103.8,25.5364,1
3391,气象站(对照点),咸阳市,610400001,1918A,,108.7197,34.3956,1
3392,实验中学,咸阳市,610400053,1919A,defaultStation.jpg,108.6761,34.3181,1
3393,师范学院,咸阳市,610400054,1920A,,108.7233,34.3617,1
3395,党校(对照点),铜川市,610200001,1922A,,109.0656,35.0994,1
3396,王益区政府,铜川市,610200061,1923A,,109.0697,35.0697,1
3355,新区兰芝公司(停运210419),铜川市,610200063,1925A,defaultStation.jpg,108.9589,34.8731,1
3356,枣园(对照点),延安市,610600001,1926A,,109.4131,36.6275,1
3867,延大医附院,延安市,610600052,1927A,,109.4761,36.6028,1
3857,百米大道,延安市,610600059,1929A,,109.5056,36.6106,1
3858,庙沟村(对照点),宝鸡市,610300003,1930A,,107.1586,34.3708,1
3859,竹园沟,宝鸡市,610300059,1931A,,107.0708,34.3017,1
3860,三陆医院,宝鸡市,610300053,1932A,,107.1906,34.3672,1
3861,监测站,宝鸡市,610300057,1933A,,107.1431,34.3547,1
3862,技工学校,宝鸡市,610300058,1934A,,107.1186,34.3739,1
3863,陈仓区环保局家属楼,宝鸡市,610300056,1935A,,107.3906,34.3528,1
3864,三迪小学,宝鸡市,610300054,1937A,,107.2386,34.3622,1
3865,农科所(对照点),渭南市,610500031,1938A,,109.5293,34.5101,1
3866,日报社,渭南市,610500051,1939A,,109.5049,34.5004,1
3868,高新一小,渭南市,610500053,1941A,,109.4266,34.5021,1
3869,市科委(停运180727),金昌市,620300401,1942A,,102.1878,38.5247,1
3851,天庆家园,金昌市,620300402,1944A,defaultStation.jpg,102.1708,38.5061,1
3852,酒钢耐材公司（已停运）,嘉峪关市,620200062,1946A,,98.2842,39.8092,1
3853,沙湖旅游区(对照点),石嘴山市,640200001,1947A,,106.3394,38.817,1
3854,惠农南大街,石嘴山市,640200052,1949A,,106.7704,39.2282,1
3855,红果子镇惠新街,石嘴山市,640200053,1950A,,106.7097,39.1292,1
3856,长征新村,克拉玛依市,650200061,1951A,,84.8861,45.6033,1
3848,白碱滩区(停运210421),克拉玛依市,650200070,1953A,defaultStation.jpg,85.1186,45.6886,1
3849,独山子区,克拉玛依市,650200071,1954A,,84.8983,44.3336,1
3850,乌尔禾区商贸楼,克拉玛依市,650200081,1955A,,85.6931,46.0872,1
3870,棉纺厂,巴音郭楞州,652800402,1957A,,86.2022,41.7192,1
3871,经济开发区,巴音郭楞州,652800403,1958A,,86.2381,41.7128,1
3872,监测站,寿光市,370783001,1959A,,118.746,36.881,1
3873,世纪学校,寿光市,370783002,1960A,,118.78,36.864,1
3874,东山小学(新增191218),济南市,370181001,1961A,,117.541,36.71,1
3875,明水开发区,章丘市,370181002,1962A,,117.541,36.71,1
3876,环保局子站,即墨市,370282001,1963A,,120.61,36.44,1
3877,开发区子站,即墨市,370282002,1964A,,120.47,36.39,1
3878,JN子站,胶南市,370284001,1965A,,120.005,35.878,1
3879,黄岛区4号(新增191220),青岛市,370284002,1966A,defaultStation.jpg,120.039,35.872,1
3880,胶州环保局,胶州市,370281001,1967A,,120.008,36.283,1
3881,胶州一中,胶州市,370281002,1968A,,120.014,36.253,1
3882,环保局子站,莱西市,370285001,1969A,,120.537,36.865,1
3883,人民广场子站,莱西市,370285002,1970A,,120.515,36.885,1
3884,1号,平度市,370283001,1971A,,119.952,36.792,1
3885,2号,平度市,370283002,1972A,,119.976,36.799,1
3518,蓬莱环保局,蓬莱市,370684001,1973A,,120.747,37.825,1
3519,蓬莱博物馆,蓬莱市,370684002,1974A,,120.773,37.809,1
3520,招远环保局,招远市,370685001,1975A,,120.399,37.374,1
3521,招远教育局,招远市,370685002,1976A,,120.394,37.364,1
3522,莱州环保局,莱州市,370683001,1977A,,119.941,37.177,1
3523,莱州外经委,莱州市,370683002,1978A,,119.959,37.18,1
3524,荣成市环保局办公楼,荣成市,371082001,1979A,,122.471,37.154,1
3525,山东成山轮胎公司,荣成市,371082002,1980A,,122.41,37.161,1
3526,文登市环保局,文登市,371081001,1981A,,122.038,37.197,1
3527,文登开发区(新增200107),威海市,371081002,1982A,,122.019,37.187,1
3528,乳山市环保局,乳山市,371083001,1983A,,121.531,36.913,1
3529,乳山市气象局,乳山市,371083002,1984A,,121.544,36.907,1
3530,吴江市环保局,吴江市,320584001,1985A,,120.636,31.155,1
3531,教师进修学校,吴江市,320584002,1986A,,120.635,31.17,1
3532,吴江开发区,吴江市,320584003,1987A,,120.658,31.172,1
3533,昆山实验小学,昆山市,320583001,1988A,,120.953,31.388,1
3534,震川中学,昆山市,320583002,1989A,,120.999,31.381,1
3535,海虞子站,常熟市,320581001,1990A,,120.758,31.67,1
3536,兴福子站,常熟市,320581002,1991A,,120.721,31.671,1
3537,菱塘子站,常熟市,320581003,1992A,,120.734,31.656,1
3538,张家港市监测站,张家港市,320582001,1993A,,120.526,31.874,1
3539,城北小学,张家港市,320582002,1994A,,120.55,31.882,1
3540,太仓市监测站,太仓市,320585001,1995A,,121.115,31.453,1
3541,科教新城实小,太仓市,320585002,1996A,,121.14,31.422,1
3542,消防指挥中心,句容市,321183001,1997A,,119.146,31.955,1
3543,房家坝,句容市,321183002,1998A,,119.18,31.955,1
3544,虹桥邮政,江阴市,320281001,1999A,,120.268,31.92,1
3545,五星公园,江阴市,320281002,2000A,,120.237,31.909,1
3546,第二实验小学,江阴市,320281003,2001A,,120.302,31.92,1
3547,宜兴市环保局,宜兴市,320282001,2002A,,119.818,31.354,1
3548,宜园,宜兴市,320282002,2003A,,119.794,31.371,1
3549,金坛市环境监测站,金坛市,320482001,2004A,,119.579,31.751,1
3550,金坛市自来水公司,金坛市,320482002,2005A,,119.579,31.737,1
3551,溧阳市东门子站,溧阳市,320481001,2006A,,119.46,31.4,1
3552,燕山子站,溧阳市,320481002,2007A,,119.438,31.317,1
3553,海门市监测站,海门市,320684001,2008A,,121.173,31.896,1
3554,社会福利院,海门市,320684002,2009A,,121.1518,31.89708,1
3555,市政府,临安市,330185001,2010A,,119.7183,30.2366,1
3556,四中,临安市,330185002,2011A,,119.6942,30.2311,1
3557,监测站,富阳市,330183001,2012A,,119.954,30.054,1
3558,富春二小,富阳市,330183002,2013A,,119.946,30.049,1
3559,江东,义乌市,330782001,2014A,,120.091,29.305,1
3560,北苑,义乌市,330782002,2015A,,120.04,29.334,1
3561,图书馆,诸暨市,330681001,2016A,,120.251,29.719,1
3562,富林印务,诸暨市,330681002,2017A,,120.209,29.732,1
3563,抱龙山庄,瓦房店市,210281001,2018A,,121.989,39.625,1
3564,东山公园,瓦房店市,210281002,2019A,,122.011,39.617,1
3565,云田中学,株洲市,430200056,2031A,,113.1817,27.9958,1
3566,平桥分局,信阳市,411500401,2054A,,114.1044,32.1078,1
3569,南湾水厂,信阳市,411500351,2064A,,114.0122,32.1403,1
3570,市酿酒公司,信阳市,411500402,2065A,,114.0681,32.1342,1
3571,审计局,信阳市,411500403,2066A,,114.0614,32.1383,1
4394,市环境监测站,周口市,411600601,2067A,,114.6613,33.6128,1
4395,周口师范,周口市,411600602,2068A,,114.6758,33.6347,1
4396,市运管处,周口市,411600603,2069A,,114.6546,33.5979,1
4397,川汇区环保局,周口市,411600604,2070A,,114.6369,33.6406,1
4398,蓝田(停运160601),漳州市,350600442,2073A,,117.7206,24.5086,1
4399,漳州三中(20190503停运),漳州市,350600447,2074A,,117.6569,24.5157,1
4400,九湖(对照点),漳州市,350600001,2075A,,117.6336,24.4674,1
3567,富林印务后,诸暨市,330681002X,2120A,,120.2094,29.7322,1
3568,图书馆后,诸暨市,330681001X,2121A,,120.2514,29.7186,1
4402,自来水公司,晋城市,140500051,2160A,,112.85,35.5051,1
4403,白云商贸,晋城市,140500052,2161A,,112.835,35.4934,1
4404,市环保局,晋城市,140500053,2162A,,112.8564,35.4883,1
4405,技术学院,晋城市,140500054,2163A,,112.8664,35.4894,1
4406,泽州一中(停运211219),晋城市,140500055,2164A,defaultStation.jpg,112.8252,35.4813,1
4407,白马寺(对照点),晋城市,140500050,2165A,defaultStation.jpg,112.8453,35.546,1
4408,平朔,朔州市,140600052,2166A,,112.44,39.3514,1
4409,朔唯,朔州市,140600053,2167A,,112.4549,39.3606,1
4410,区政府,朔州市,140600054,2168A,,112.4254,39.3179,1
4411,市环保局,朔州市,140600055,2169A,,112.4078,39.3265,1
4412,市二中,朔州市,140600056,2170A,,112.4279,39.3673,1
4413,锦纶小区,晋中市,140700051,2171A,,112.7549,37.7019,1
4414,榆次液压件厂（已停运）,晋中市,140700052,2172A,,112.7219,37.6892,1
4415,南都小区,晋中市,140700053,2173A,,112.7306,37.7111,1
4416,榆次区政府,晋中市,140700054,2174A,,112.7105,37.7087,1
4417,运城中学,运城市,140800091,2175A,defaultStation.jpg,110.9956,35.0147,1
4418,禹都开发区(停运200901),运城市,140800092,2176A,defaultStation.jpg,111.0233,35.0611,1
4419,运城学院（已停运）,运城市,140800093,2177A,,111.0397,35.0394,1
4420,地区技校,运城市,140800095,2178A,,110.9678,35.0308,1
4421,空港新区,运城市,140800096,2179A,,111.0414,35.1147,1
4422,机引(20190313停运),忻州市,140900103,2180A,,112.7356,38.4186,1
4423,开发区,忻州市,140900104,2181A,,112.7383,38.4519,1
4424,会展中心,忻州市,140900106,2182A,,112.7003,38.4928,1
4425,环保局,吕梁市,141100051,2183A,,111.1406,37.5211,1
4426,豆制品厂（已停运）,吕梁市,141100052,2184A,,111.1283,37.5333,1
4427,自来水公司,吕梁市,141100053,2185A,,111.1297,37.5136,1
4428,聚英学校(停运210425),乌海市,150300461,2186A,defaultStation.jpg,106.8219,39.6719,1
4429,市林业局,乌海市,150300462,2187A,,106.8089,39.6969,1
4430,中海勃湾学校,乌海市,150300463,2188A,,106.7907,39.6667,1
4431,通辽宾馆(停运200123),通辽市,150500806,2189A,defaultStation.jpg,122.2603,43.6267,1
4432,胶建铝业(停运200221),通辽市,150500807,2190A,defaultStation.jpg,122.3039,43.6156,1
4433,艺术职业学校,通辽市,150500808,2191A,,122.2532,43.6801,1
4764,区环保局,呼伦贝尔市,150700131,2192A,,119.7594,49.2261,1
4765,市艺校(停运170601),呼伦贝尔市,150700132,2193A,,119.7283,49.2014,1
4766,秋林养殖基地(对照点)(停运210421),巴彦淖尔市,150800011,2194A,defaultStation.jpg,107.5936,40.916,1
4767,附二中,巴彦淖尔市,150800566,2195A,defaultStation.jpg,107.4211,40.7608,1
4768,市环保大楼,巴彦淖尔市,150800567,2196A,,107.3715,40.7378,1
4769,集宁新区,乌兰察布市,150900850,2197A,,113.1306,40.9923,1
4770,集宁旧区西(停运170221),乌兰察布市,150900851,2198A,,113.0974,41.038,1
4771,盟监测站(停运170221),兴安盟,152200525,2199A,,122.062,46.0872,1
4772,胜华新制药厂,兴安盟,152200526,2200A,,122.0392,46.0656,1
4773,科右前旗环保局,兴安盟,152200527,2201A,,121.9504,46.07406,1
4774,市环保监测站,锡林郭勒盟,152500819,2202A,,116.1042,43.9317,1
4775,市政府,锡林郭勒盟,152500820,2203A,,116.0781,43.9311,1
4776,西城区西花园(对照点),阿拉善盟,152900012,2204A,defaultStation.jpg,105.6775,38.8343,1
4777,蒙二幼,阿拉善盟,152900051,2205A,defaultStation.jpg,105.6975,38.843,1
4778,环保局新楼,阿拉善盟,152900052,2206A,defaultStation.jpg,105.724,38.8516,1
4779,工业园区,阜新市,210900411,2207A,,121.6178,41.9967,1
4780,长青街,阜新市,210900412,2208A,,121.6561,42.0186,1
4781,农业园区,阜新市,210900413,2209A,,121.6972,42.0503,1
4782,东苑,阜新市,210900414,2210A,,121.6722,42.0228,1
4783,玉龙新城,阜新市,210900415,2211A,,121.6592,42.0486,1
4784,宏伟区,辽阳市,211000405,2212A,,123.2,41.1953,1
4785,新华园,辽阳市,211000406,2213A,,123.15,41.2553,1
4786,滨河路,辽阳市,211000407,2214A,,123.1761,41.2736,1
4787,铁西工业园,辽阳市,211000408,2215A,,123.1417,41.2894,1
4788,汇工街西,铁岭市,211200401,2216A,,123.8139,42.3022,1
4789,水上乐园,铁岭市,211200405,2217A,,123.8469,42.292,1
4790,银州路东段,铁岭市,211200411,2218A,,123.8489,42.2864,1
4791,金沙江路北,铁岭市,211200412,2219A,,123.7153,42.2217,1
4792,西梁,朝阳市,211300751,2220A,,120.4439,41.5931,1
4793,河畔小区,朝阳市,211300752,2221A,,120.4486,41.5672,1
4794,八里堡,朝阳市,211300753,2222A,,120.4247,41.5647,1
4795,农业园区,朝阳市,211300754,2223A,,120.3939,41.615,1
4796,监测站(停运200414),四平市,220300130,2224A,defaultStation.jpg,124.3419,43.1747,1
4797,一商场,四平市,220300131,2225A,,124.3711,43.1594,1
4798,境园,四平市,220300136,2226A,,124.3897,43.1847,1
4799,环保局,辽源市,220400404,2227A,,125.1358,42.8947,1
4800,污水处理厂(20190903停用),辽源市,220400405,2228A,,125.1567,42.8953,1
4801,光明,通化市,220500411,2229A,,125.9361,41.7156,1
4963,铁路,通化市,220500412,2230A,,125.9486,41.7381,1
4964,喜丰,白山市,220600423,2231A,,126.4047,41.9206,1
4965,环保局,白山市,220600424,2232A,,126.4078,41.9419,1
4966,江南,松原市,220700431,2233A,,124.8292,45.0878,1
4967,江北,松原市,220700432,2234A,,124.8528,45.1642,1
4968,洮北区环保局,白城市,220800453,2235A,,122.8444,45.6289,1
4969,市环保局,白城市,220800454,2236A,,122.8211,45.6175,1
4970,妇幼医院,延边朝鲜族自治州,222400447,2237A,,129.4892,42.8939,1
4971,延边医院,延边朝鲜族自治州,222400448,2238A,,129.5042,42.9061,1
4972,朝阳川镇医院,延边朝鲜族自治州,222400449,2239A,,129.3675,42.8775,1
4973,环保局,鸡西市,230300411,2240A,defaultStation.jpg,130.962,45.2924,1
4974,自来水公司(停运200301),鸡西市,230300412,2241A,defaultStation.jpg,130.9817,45.305,1
4975,白酒厂(停运200301),鸡西市,230300413,2242A,defaultStation.jpg,131.0103,45.2948,1
4976,第一中学,鸡西市,230300001,2243A,defaultStation.jpg,130.9298,45.2978,1
4977,哈啤分公司,鹤岗市,230400051,2244A,,130.2659,47.3349,1
4978,斯达机电,鹤岗市,230400052,2245A,,130.261,47.2753,1
4979,东山纸板厂,鹤岗市,230400081,2246A,,130.3172,47.3489,1
4980,五号水库(对照点),鹤岗市,230400001,2247A,,130.1097,47.3382,1
4981,双合村,双鸭山市,230500421,2248A,,131.1638,46.6572,1
4982,南小市,双鸭山市,230500422,2249A,,131.1651,46.619,1
4983,环保局,双鸭山市,230500426,2250A,,131.1516,46.6462,1
4984,苗圃(对照点),双鸭山市,230500001,2251A,,131.1572,46.5888,1
4985,环保局,伊春市,230700051,2252A,defaultStation.jpg,128.8736,47.7222,1
4986,电力嘉园,伊春市,230700052,2253A,defaultStation.jpg,128.9094,47.7317,1
4987,汤旺河国家公园(对照点),伊春市,230700050,2254A,,129.4942,48.4658,1
4988,佳纺,佳木斯市,230800431,2255A,,130.2719,46.8025,1
4989,发电厂,佳木斯市,230800435,2256A,,130.3961,46.8267,1
4990,环保局,佳木斯市,230800437,2257A,,130.3258,46.7975,1
4991,十一中,佳木斯市,230800438,2258A,,130.3648,46.8032,1
4992,四丰(对照点),佳木斯市,230800001,2259A,,130.3794,46.7588,1
4993,环保局(停运200627),七台河市,230900061,2260A,defaultStation.jpg,131.0032,45.7677,1
4994,新建(停运200107),七台河市,230900066,2261A,,130.8625,45.8194,1
4995,新一中(对照点),七台河市,230900001,2262A,defaultStation.jpg,130.9467,45.8309,1
4996,交通局,黑河市,231102461,2263A,,127.4961,50.2486,1
4997,环保局,黑河市,231102462,2264A,defaultStation.jpg,127.5044,50.2391,1
4998,大黑河岛(对照点),黑河市,231102001,2265A,defaultStation.jpg,127.4143,50.2538,1
4999,人和东街,绥化市,231200471,2266A,,126.9934,46.6384,1
5000,党政办公中心,绥化市,231200472,2267A,,126.9636,46.6527,1
4182,环保局(停运191231),大兴安岭地区,232700401,2268A,,124.1186,50.4269,1
4183,科技局,大兴安岭地区,232700402,2269A,defaultStation.jpg,124.1303,50.4217,1
4184,工人疗养院,蚌埠市,340300355,2270A,,117.3961,32.939,1
4185,百货大楼,蚌埠市,340300422,2271A,,117.3605,32.9427,1
4186,二水厂(停运200430),蚌埠市,340300424,2272A,defaultStation.jpg,117.3086,32.935,1
4187,蚌埠学院,蚌埠市,340300425,2273A,,117.4186,32.8913,1
4188,淮上区政府,蚌埠市,340300426,2274A,,117.3536,32.9673,1
4189,高新区,蚌埠市,340300427,2275A,,117.3065,32.8985,1
4190,大通区政府（已停运）,淮南市,340400523,2276A,,117.0417,32.6611,1
4191,潘集区政府,淮南市,340400524,2277A,,116.8028,32.7639,1
4192,师范学院,淮南市,340400525,2278A,,117.0066,32.6524,1
4193,谢家集区政府,淮南市,340400526,2279A,,116.8556,32.6028,1
4194,八公山区政府,淮南市,340400527,2280A,,116.8306,32.6319,1
4195,焦岗湖风景区管理处(对照点),淮南市,340400001,2281A,,116.7039,32.625,1
4196,监测站,淮北市,340600413,2282A,,116.8008,33.975,1
4197,烈山区政府,淮北市,340600414,2283A,,116.8067,33.8997,1
4198,职业技术学院,淮北市,340600416,2284A,,116.7844,33.9461,1
4199,市第四中学,铜陵市,340700431,2285A,,117.8178,30.9414,1
4200,市公路局,铜陵市,340700432,2286A,,117.8078,30.9222,1
4201,市新民污水厂,铜陵市,340700433,2287A,,117.7806,30.9414,1
4202,市第九中学,铜陵市,340700434,2288A,,117.7442,30.8811,1
4203,车站新区,铜陵市,340700435,2289A,,117.8561,30.9219,1
4204,市职教基地,铜陵市,340700436,2290A,,117.5045,30.587,1
4205,环科院,安庆市,340800080,2291A,,117.0549,30.5103,1
4206,马山宾馆,安庆市,340800085,2292A,,117.0331,30.512,1
4207,联富花园(停运180816),安庆市,340800069,2293A,,117.0486,30.5489,1
4208,安庆大学(191227对照变更评价),安庆市,340800020,2294A,defaultStation.jpg,116.9896,30.6145,1
4209,延安路89号,黄山市,341000491,2295A,,118.3057,29.7128,1
4210,黄山东路89号,黄山市,341000492,2296A,,118.3236,29.7207,1
4211,黄山区政府5号楼,黄山市,341000494,2297A,,118.1371,30.2756,1
4212,老年大学,滁州市,341100471,2298A,,118.3094,32.3153,1
4213,人大宾馆,滁州市,341100472,2299A,,118.3244,32.2786,1
4214,监测站(20190308停运),滁州市,341100473,2300A,,118.3158,32.3061,1
4215,市监测站,阜阳市,341200461,2301A,,115.8275,32.8928,1
4216,市委党校（已停运）,阜阳市,341200465,2302A,,115.8106,32.8886,1
4217,开发区,阜阳市,341200466,2303A,,115.8556,32.8603,1
4218,监测楼（20181204停用）,宿州市,341300520,2304A,,116.9765,33.6481,1
4881,一中(停运200114),宿州市,341300521,2305A,,116.9677,33.6284,1
4882,火车站(停运210420),宿州市,341300522,2306A,defaultStation.jpg,116.989,33.6306,1
4883,监测大楼,六安市,341500211,2307A,,116.508,31.7371,1
4884,皖西学院,六安市,341500212,2308A,,116.478,31.7618,1
4885,朝阳厂,六安市,341500213,2309A,,116.5068,31.7797,1
4886,开发区,六安市,341500214,2310A,,116.5661,31.7712,1
4887,污水处理厂,亳州市,341600511,2311A,,115.8067,33.8399,1
4888,三国揽胜宫,亳州市,341600512,2312A,,115.7831,33.8561,1
4889,环保大楼(停运160506),池州市,341700516,2313A,,117.4808,30.6414,1
4890,池州学院,池州市,341700515,2314A,,117.4697,30.6617,1
4891,平天湖(对照点)(停运210423),池州市,341700013,2315A,defaultStation.jpg,117.4974,30.6539,1
4892,鳌峰子站,宣城市,341800370,2316A,,118.7581,30.9447,1
4893,敬亭山子站,宣城市,341800500,2317A,,118.7386,30.9742,1
4894,开发区子站,宣城市,341800501,2318A,,118.7175,30.9431,1
4895,荔城区仓后路,莆田市,350300051,2319A,,119.0156,25.442,1
4896,莆田市监测站,莆田市,350300052,2320A,,119.0018,25.4552,1
4897,涵江区六中,莆田市,350300053,2321A,,119.1117,25.4556,1
4898,秀屿区政府,莆田市,350300054,2322A,,119.1015,25.3214,1
4899,东圳水库(对照点),莆田市,350300001,2323A,,118.981,25.4792,1
4900,三钢,三明市,350400094,2324A,,117.6211,26.2625,1
4901,三明二中,三明市,350400111,2325A,,117.6353,26.2708,1
4902,三元区政府,三明市,350400112,2326A,,117.6028,26.2378,1
4903,洋溪(对照点),三明市,350400021,2327A,,117.7275,26.3108,1
4904,茫荡山(对照点),南平市,350700001,2331A,,118.0966,26.6761,1
4905,南平市监测站,南平市,350700051,2332A,,118.1694,26.6383,1
4906,南平铝业有限公司,南平市,350700052,2333A,,118.1819,26.6514,1
4907,南平七中,南平市,350700053,2334A,,118.1756,26.6272,1
4908,龙岩师专(对照点),龙岩市,350800038,2335A,,117.0181,25.1174,1
4909,龙岩市监测站,龙岩市,350800463,2336A,,117.0216,25.1035,1
4910,闽西职业技术学院,龙岩市,350800468,2337A,,117.0256,25.0661,1
4911,龙岩学院,龙岩市,350800467,2338A,,117.0151,25.0311,1
4912,金涵水库(对照点),宁德市,350900001,2339A,,119.5001,26.6946,1
4913,蕉城区农机局(20190319停运),宁德市,350900051,2340A,,119.5202,26.6607,1
4914,宁德市监测站,宁德市,350900052,2341A,,119.5392,26.6611,1
4915,王岗中学(对照点),景德镇市,360200003,2342A,,117.3097,29.3864,1
4916,老干部活动中心,景德镇市,360200051,2343A,,117.2111,29.2958,1
4917,兽医站,景德镇市,360200052,2344A,,117.1983,29.2786,1
4918,台达陶瓷,景德镇市,360200054,2345A,,117.1558,29.2647,1
4919,陶研所,景德镇市,360200053,2346A,,117.2461,29.2956,1
4920,武功山气象站(对照点),萍乡市,360300003,2347A,,114.0944,27.4948,1
4921,中医院,萍乡市,360300051,2348A,,113.8381,27.6428,1
5001,市政府车库,萍乡市,360300055,2349A,,113.8447,27.6231,1
5002,市环保局,萍乡市,360300053,2350A,,113.8686,27.6442,1
5003,安源区政府,萍乡市,360300056,2351A,,113.8651,27.61778,1
5004,北岗(对照点),新余市,360500001,2352A,,115.0586,27.7758,1
5005,飞宇,新余市,360500405,2353A,,114.9831,27.8344,1
5006,第二水厂,新余市,360500404,2354A,,114.9289,27.8328,1
5007,市气象局,新余市,360500401,2355A,,114.9314,27.8036,1
5008,新钢氧气厂(20190301停用),新余市,360500407,2356A,,114.9119,27.8042,1
5009,龙虎山(对照点),鹰潭市,360600001,2357A,,116.9622,28.095,1
5010,新监测站,鹰潭市,360600402,2358A,,117.0564,28.2642,1
5011,财苑宾馆,鹰潭市,360600404,2359A,,117.0281,28.2403,1
5012,体育馆,鹰潭市,360600410,2360A,,117.0222,28.2264,1
5013,三川水表,鹰潭市,360600411,2361A,,116.9983,28.2169,1
5014,通天岩(对照点),赣州市,362100002,2362A,,114.9064,25.9118,1
5015,地委,赣州市,362100054,2363A,,114.9367,25.8664,1
5016,气象台,赣州市,362100056,2364A,,114.9461,25.8481,1
5017,市图书馆,赣州市,362100058,2365A,,114.9322,25.8333,1
5018,华坚鞋城,赣州市,362100052,2366A,,114.8905,25.8471,1
5019,红声器材厂,吉安市,362400401,2367A,,114.9817,27.0658,1
5020,市森林工业局,吉安市,362400402,2368A,,114.9739,27.11,1
5021,市环境监测站,吉安市,362400403,2369A,,114.99,27.1311,1
5022,青原区法院,吉安市,362400413,2370A,,115.0075,27.0983,1
5023,槟榔水业(对照点),宜春市,362200001,2371A,,114.3442,27.8036,1
5024,市中国银行(181229停用),宜春市,362200401,2372A,,114.3806,27.8014,1
5025,市石油公司,宜春市,362200402,2373A,,114.3953,27.7842,1
5026,市气象局,宜春市,362200403,2374A,,114.3703,27.7914,1
5027,市广电局,宜春市,362200405,2375A,,114.4011,27.8072,1
5028,桐源党溪(对照点),抚州市,362500001,2376A,,116.2239,28.0797,1
5029,市站,抚州市,362500402,2377A,,116.3553,27.9883,1
5030,血防站,抚州市,362500403,2378A,,116.3598,27.9639,1
5031,采茶剧团,抚州市,362500405,2379A,,116.3574,28.0005,1
5032,医学分院,抚州市,362500406,2380A,,116.385,27.9647,1
5033,百草园(对照点),上饶市,362300001,2381A,,118.0058,28.4569,1
5034,市监测站,上饶市,362300401,2382A,,117.973,28.4459,1
5035,凤凰光学,上饶市,362300408,2383A,defaultStation.jpg,117.9519,28.4628,1
5036,开发区管委会(停运200112),上饶市,362300410,2384A,,117.9033,28.4303,1
5037,市监测站,鹤壁市,410600401,2385A,,114.17,35.9019,1
5038,市交警支队,鹤壁市,410600402,2386A,,114.2956,35.7511,1
5039,迎宾馆,鹤壁市,410600403,2387A,,114.2878,35.7306,1
5040,科技学院(停运170505),新乡市,410700351,2388A,,113.926,35.279,1
5041,环保西院,新乡市,410700401,2389A,,113.836,35.31,1
5042,开发区,新乡市,410700402,2390A,,113.884,35.272,1
5043,环保东院,新乡市,410700403,2391A,,113.883,35.303,1
5044,环保局,濮阳市,410900401,2392A,,115.031,35.763,1
5045,天威(停运161121),濮阳市,410900402,2393A,,114.9906,35.767,1
5046,油田运输公司,濮阳市,410900403,2394A,,115.0628,35.7672,1
5047,油田物探公司,濮阳市,410900404,2395A,,115.0772,35.767,1
5048,监测站,许昌市,411000403,2396A,,113.8331,34.0117,1
5049,环保局(停运170929),许昌市,411000404,2397A,,113.8208,34.0314,1
5050,开发区,许昌市,411000405,2398A,,113.7906,33.9953,1
5051,三五一五工厂,漯河市,411100101,2399A,,114.056,33.567,1
5052,漯河大学,漯河市,411100102,2400A,,114.005,33.568,1
5053,市水利局,漯河市,411100103,2401A,defaultStation.jpg,114.014,33.581,1
5054,市广电局,漯河市,411100104,2402A,defaultStation.jpg,114.0322,33.5653,1
5055,环保局,南阳市,411300401,2403A,,112.5192,32.9917,1
5056,瓦房庄,南阳市,411300404,2404A,,112.5224,33.0122,1
5057,汉画馆,南阳市,411300405,2405A,,112.5003,32.9735,1
5058,气象站,南阳市,411300351,2406A,,112.5573,33.027,1
5059,理工学院,南阳市,411300402,2407A,,112.5481,32.9689,1
5060,环境监测站,商丘市,411400401,2408A,,115.6697,34.4286,1
5061,粮食局,商丘市,411400402,2409A,,115.6558,34.429,1
5062,睢阳区环保局,商丘市,411400403,2410A,,115.6386,34.407,1
5063,第三人民医院(20190220停运),商丘市,411400404,2411A,,115.6578,34.402,1
5064,市一纸厂,驻马店市,411700404,2420A,,114.018,32.965,1
5065,市彩印厂,驻马店市,411700405,2421A,,114.0131,33.0069,1
5066,天方二分厂,驻马店市,411700406,2422A,,113.996,32.996,1
5067,沈家营,黄石市,420200051,2423A,,115.0625,30.2331,1
5068,陈家湾,黄石市,420200052,2424A,,115.0767,30.2028,1
5069,新下陆(停运180114),黄石市,420200053,2425A,,114.9551,30.1765,1
5070,铁山,黄石市,420200054,2426A,,114.8949,30.2043,1
5071,团城山,黄石市,420200055,2427A,,115.0264,30.2099,1
5072,武当山(对照点),十堰市,420300010,2428A,,111.0419,32.395,1
5073,滨河新村,十堰市,420300051,2429A,,110.78,32.6494,1
5074,刘家沟,十堰市,420300052,2430A,,110.7258,32.6389,1
5075,铁二处,十堰市,420300053,2431A,,110.8839,32.5714,1
5076,襄城运动路,襄阳市,420600051,2432A,,112.155,32.0197,1
5077,樊城新华路,襄阳市,420600056,2433A,,112.1392,32.0564,1
5078,高新管委会,襄阳市,420600059,2434A,,112.1825,32.1142,1
5079,襄州航空路,襄阳市,420600060,2435A,,112.2106,32.0903,1
5080,市政府,鄂州市,420700051,2436A,,114.8878,30.3944,1
5081,赵家坝,鄂州市,420700052,2437A,,114.8989,30.3714,1
4922,凡口开发区(停运210428),鄂州市,420700053,2438A,defaultStation.jpg,114.8131,30.4133,1
4923,竹园小学,荆门市,420800051,2439A,,112.2014,31.0483,1
4924,掇刀,荆门市,420800052,2440A,,112.1969,30.9892,1
4925,石化一小,荆门市,420800053,2441A,,112.2211,31.0386,1
4926,市政府(停运161103),荆门市,420800054,2442A,,112.1931,31.0375,1
4927,文化路,孝感市,420900051,2443A,,113.9153,30.9285,1
4928,东城区,孝感市,420900052,2444A,,113.942,30.9075,1
4929,大洲岛(停运161109),黄冈市,421100051,2445A,,114.8857,30.4522,1
4930,职工中心,黄冈市,421100052,2446A,,114.9028,30.4742,1
4931,森林公园(对照点),咸宁市,421200010,2447A,,114.329,29.8175,1
4932,市发改委,咸宁市,421200051,2448A,,114.3231,29.8211,1
4933,咸安区政府,咸宁市,421200052,2449A,,114.2894,29.8539,1
4934,长江产业园(停运210428),咸宁市,421200053,2450A,defaultStation.jpg,114.3372,29.8686,1
4935,市委党校,随州市,421300051,2451A,,113.3583,31.7275,1
4936,市林业局,随州市,421300052,2452A,,113.3833,31.6908,1
4937,市立交桥水厂,随州市,421300053,2453A,,113.3983,31.7308,1
4938,湖北民院,恩施土家族苗族自治州,422800051,2454A,,109.5039,30.2989,1
4939,州电力总公司,恩施土家族苗族自治州,422800052,2455A,,109.4689,30.2819,1
4940,原169医院(对照点),衡阳市,430400050,2456A,,112.5328,26.9089,1
4941,衡阳化工总厂,衡阳市,430400055,2457A,,112.6194,26.9258,1
4942,珠晖区环保局,衡阳市,430400051,2458A,,112.6211,26.8956,1
4943,市委党校,衡阳市,430400052,2459A,,112.6197,26.8733,1
4944,市监测站,衡阳市,430400054,2460A,,112.6006,26.8919,1
4945,真空机电公司,衡阳市,430400056,2461A,,112.5664,26.9056,1
4946,市水土所(对照点),邵阳市,430500050,2462A,,111.5239,27.3033,1
4947,市一中,邵阳市,430500054,2463A,,111.4733,27.2317,1
4948,市化工厂,邵阳市,430500051,2464A,,111.4908,27.2582,1
4949,市罐头厂,邵阳市,430500052,2465A,,111.4503,27.2537,1
4950,市环保局,邵阳市,430500053,2466A,,111.4328,27.2272,1
4951,甘溪港(对照点),益阳市,430900050,2467A,,112.4067,28.6428,1
4952,市环保局,益阳市,430900053,2468A,,112.3458,28.5808,1
4953,市特殊教育学校,益阳市,430900054,2469A,,112.3439,28.56,1
4954,资阳区政务中心,益阳市,430900051,2470A,,112.3347,28.6047,1
4955,赫山环保分局,益阳市,430900052,2471A,,112.3744,28.5819,1
4956,马头岭(对照点),郴州市,431000050,2472A,,113.0073,25.9061,1
4957,市职中,郴州市,431000051,2473A,,113.0116,25.8226,1
4958,兴隆步行街,郴州市,431000052,2474A,,113.0119,25.8179,1
4959,市审计局,郴州市,431000054,2475A,,113.0383,25.8071,1
4960,市环保局,郴州市,431000055,2476A,,113.0348,25.7759,1
4961,零陵南津渡(对照点),永州市,431100050,2477A,,111.6217,26.2081,1
4962,市环境监测站,永州市,431100051,2478A,,111.6156,26.4214,1
4072,零陵区环保局,永州市,431100052,2479A,,111.6236,26.2331,1
4073,永州市环保局,永州市,431100053,2480A,,111.5992,26.4364,1
4074,冷水滩区环保局,永州市,431100054,2481A,,111.5989,26.4519,1
4075,林科所(对照点),怀化市,431200050,2482A,,109.9333,27.5733,1
4076,河西地税局,怀化市,431200051,2483A,,109.9453,27.5444,1
4077,市四医院,怀化市,431200052,2484A,,109.9792,27.5342,1
4078,监测楼,怀化市,431200053,2485A,,109.9972,27.5578,1
4079,市委党校,怀化市,431200054,2486A,,110.0394,27.583,1
4080,电视发射台(对照点),娄底市,431300050,2487A,,111.9975,27.725,1
4081,市监测站,娄底市,431300051,2488A,,111.9975,27.725,1
4082,市委党校,娄底市,431300053,2489A,,112.0194,27.7314,1
4083,涟钢,娄底市,431300052,2490A,,111.9561,27.7569,1
4084,市政府,娄底市,431300054,2491A,,111.9892,27.7044,1
4085,跃进水库(对照点),湘西州,433100050,2492A,,109.6414,28.2558,1
4086,州政府,湘西州,433100051,2493A,,109.7325,28.3169,1
4087,吉首市计生局,湘西州,433100052,2494A,,109.6958,28.2675,1
4088,市逸夫小学,梧州市,450400098,2495A,defaultStation.jpg,111.2897,23.4792,1
4089,市十一中,梧州市,450400100,2496A,defaultStation.jpg,111.3178,23.475,1
4090,龙圩,梧州市,450400574,2497A,,111.2353,23.415,1
4091,龙新,梧州市,450400573,2498A,,111.26,23.4794,1
4092,沙万,防城港市,450600523,2499A,,108.3411,21.6158,1
4093,防城档案局,防城港市,450600525,2500A,defaultStation.jpg,108.3511,21.7631,1
4094,大海花园,防城港市,450600570,2501A,,108.3506,21.6414,1
4095,市环保站,钦州市,450700484,2502A,,108.6236,21.9667,1
4096,沙埠小学,钦州市,450700527,2503A,defaultStation.jpg,108.6553,21.9508,1
4097,港区一小,钦州市,450700572,2504A,,108.5989,21.7431,1
4098,德智高中(对照点),贵港市,450800025,2505A,,109.5681,23.1478,1
4099,江南子站,贵港市,450800564,2506A,,109.6042,23.0672,1
4100,贵城子站,贵港市,450800565,2507A,,109.6014,23.0944,1
4101,荷城子站,贵港市,450800571,2508A,,109.5683,23.1036,1
4102,寒山水库(对照点),玉林市,450900026,2509A,,110.1106,22.7019,1
4103,市监测站,玉林市,450900568,2510A,,110.1675,22.6411,1
4104,南江一中,玉林市,450900569,2511A,,110.1433,22.6164,1
4105,市监测站,百色市,451000068,2512A,,106.6103,23.9011,1
4106,市中心血站,百色市,451000121,2513A,,106.6527,23.8844,1
4107,环保小区,贺州市,451100566,2514A,,111.5269,24.4175,1
4108,政协大楼,贺州市,451100567,2515A,,111.5622,24.4072,1
4109,东仁乐园(对照点),河池市,451200012,2516A,,108.2134,24.7121,1
4110,市环保站,河池市,451200109,2517A,,108.054,24.6928,1
4111,市疾控中心,河池市,451200120,2518A,,108.1009,24.6967,1
4590,来宾二中,来宾市,451300531,2519A,,109.2131,23.7208,1
4589,来宾技工学校,来宾市,451300532,2520A,defaultStation.jpg,109.2317,23.7369,1
4591,市环保局江州分局,崇左市,451400559,2521A,,107.3476,22.4137,1
4592,城南新区,崇左市,451400563,2522A,,107.3701,22.3708,1
4593,黑石坡(对照点),广元市,510800001,2523A,,105.8945,32.4535,1
4594,老城,广元市,510800401,2524A,,105.8242,32.4429,1
4595,南坝(停运210421),广元市,510800402,2525A,defaultStation.jpg,105.8153,32.4246,1
4596,监测站,广元市,510800403,2526A,,105.8624,32.4285,1
4597,石溪浩(对照点),遂宁市,510900001,2527A,,105.7519,30.5797,1
4598,市监测站,遂宁市,510900152,2528A,,105.68,30.6133,1
4599,行政中心,遂宁市,510900154,2529A,,105.8161,30.6347,1
4600,美宁食品公司,遂宁市,510900155,2530A,,105.5956,30.475,1
4601,市监测站,内江市,511000051,2531A,,105.0331,29.5953,1
4602,东兴区政府,内江市,511000408,2532A,,105.0717,29.5947,1
4603,内江二中,内江市,511000409,2533A,,105.0653,29.5817,1
4604,内江日报社,内江市,511000605,2534A,,105.0406,29.5822,1
4605,花湖湾(对照点),乐山市,511100001,2535A,,103.7705,29.5467,1
4606,牛耳桥,乐山市,511100051,2536A,,103.7627,29.5844,1
4607,市第三水厂,乐山市,511100058,2537A,,103.7506,29.6007,1
4608,市监测站,乐山市,511100083,2538A,,103.757,29.5634,1
4609,黑龙滩水库(对照点),眉山市,511400001,2539A,defaultStation.jpg,103.8986,30.0506,1
4610,气象局,眉山市,511400401,2540A,,103.8416,30.0874,1
4611,旭光小区(停运180110),眉山市,511400402,2541A,,103.8495,30.0691,1
4612,市监测站(停运180111),眉山市,511400403,2542A,,103.8341,30.062,1
4613,小平旧居(对照点),广安市,511600001,2543A,,106.631,30.518,1
4614,市委,广安市,511600402,2544A,,106.6303,30.4576,1
4615,友谊中学,广安市,511600403,2545A,,106.6271,30.4663,1
4616,人工湖(停运160101),广安市,511600404,2546A,,106.6406,30.4844,1
4617,广电花园,广安市,511600405,2547A,,106.6388,30.4551,1
4618,达州职业技术学院(对照点),达州市,511700001,2548A,,107.5272,31.2797,1
4619,市环境监测站,达州市,511700501,2549A,,107.525,31.215,1
4620,凤凰小区,达州市,511700502,2550A,,107.4967,31.2108,1
4621,达县机关宾馆,达州市,511700503,2551A,,107.5069,31.1956,1
4622,市政中心,达州市,511700504,2552A,,107.4611,31.2058,1
4623,大兴526台(对照点)(停运200229),雅安市,511800001,2553A,,103.009,30.0125,1
4624,建安厂,雅安市,511800401,2554A,,103.0013,29.9899,1
4625,市政府,雅安市,511800402,2555A,,103.0109,29.9834,1
4626,川农大,雅安市,511800404,2556A,,103.0001,29.9816,1
4627,南龛公园(已停运),巴中市,511900001,2557A,,106.7583,31.8475,1
4802,市环保局(停运181029),巴中市,511900405,2558A,,106.7389,31.8711,1
4803,巴中中学(停运181029),巴中市,511900410,2559A,,106.7594,31.8531,1
4804,市六中(停运160428),巴中市,511900411,2560A,,106.7608,31.8456,1
4805,莲花山(对照点),资阳市,512000001,2561A,,104.6617,30.1366,1
4806,资阳中学,资阳市,512000404,2562A,,104.6356,30.1506,1
4807,四三一厂,资阳市,512000415,2563A,,104.6289,30.1377,1
4808,师范校,资阳市,512000416,2564A,,104.6469,30.1142,1
4809,区法院,资阳市,512000417,2565A,,104.6294,30.1259,1
4810,州农科所(对照点),阿坝藏族羌族自治州,513200001,2566A,,102.1755,31.9286,1
4811,州监测站,阿坝藏族羌族自治州,513200401,2567A,,102.2218,31.9025,1
4812,马师校,阿坝藏族羌族自治州,513200403,2568A,,102.2402,31.8934,1
4813,将军桥(停运170614),甘孜藏族自治州,513300051,2569A,,101.9628,30.0506,1
4814,水桥子,甘孜藏族自治州,513300402,2570A,,101.9603,30.0475,1
4815,青龙寺(对照点),凉山彝族自治州,513400001,2571A,,102.3419,27.8094,1
4816,邛海宾馆,凉山彝族自治州,513400351,2572A,,102.2714,27.8408,1
4817,西昌市政府,凉山彝族自治州,513400401,2573A,,102.2625,27.8978,1
4818,凉山州政府,凉山彝族自治州,513400402,2574A,,102.2689,27.8847,1
4819,长安,凉山彝族自治州,513400403,2575A,,102.2311,27.8953,1
4820,窑上(对照点),六盘水市,520200002,2576A,,104.8,26.5892,1
4821,黄土坡,六盘水市,520200051,2577A,,104.83,26.5917,1
4822,水钢,六盘水市,520200053,2578A,,104.89,26.5939,1
4823,民中,六盘水市,520200056,2579A,,104.8475,26.5894,1
4824,双水,六盘水市,520200057,2580A,,104.9544,26.5506,1
4825,虹机厂子校(对照点)(停运171013),安顺市,520400001,2581A,,105.9556,26.2611,1
4826,市一中(停运171013),安顺市,520400401,2582A,,105.9278,26.255,1
4827,铁路子校(停运171013),安顺市,520400402,2583A,,105.9394,26.2358,1
4828,龙岩子校(停运171013),安顺市,520400403,2584A,,105.8853,26.2392,1
4829,铜仁卫校,铜仁地区,522200401,2585A,,109.1916,27.7297,1
4830,铜仁七中,铜仁地区,522200402,2586A,,109.1794,27.7231,1
4831,八中,毕节市,522400401,2587A,,105.2864,27.3125,1
4832,师专,毕节市,522400405,2588A,,105.31,27.2944,1
4833,场坝街,黔西南布依族苗族自治州,522300402,2589A,,104.9022,25.0925,1
4834,坪东大道,黔西南布依族苗族自治州,522300403,2590A,,104.8811,25.0992,1
4835,市环境监测站,黔东南苗族侗族自治州,522600402,2591A,,107.9783,26.5747,1
4836,马坡井小学（已停运）,黔东南苗族侗族自治州,522600403,2592A,,107.9478,26.5703,1
4837,小围寨,黔南布依族苗族自治州,522700401,2593A,,107.5228,26.2403,1
4838,市环境监测站,保山市,530500427,2594A,,99.1678,25.1081,1
4839,市环保局,保山市,530500428,2595A,,99.1711,25.1328,1
4840,监测站,昭通市,530600403,2596A,,103.7032,27.3392,1
4549,环保局,昭通市,530600404,2597A,,103.7225,27.3361,1
4550,西南郊(对照点),丽江市,530700011,2598A,,100.2143,26.8576,1
4551,丽江古城,丽江市,530700052,2599A,,100.2497,26.8802,1
4552,市中心,丽江市,530700055,2600A,,100.2203,26.8906,1
4553,市环保局,普洱市,530800413,2601A,,100.98,22.7633,1
4554,普洱第二中学,普洱市,530800416,2602A,,100.9817,22.8322,1
4555,市环保局,临沧市,530900429,2603A,,100.0869,23.8822,1
4556,市气象局,临沧市,530900430,2604A,,100.0782,23.8982,1
4557,州环境监测站,楚雄州,532301405,2605A,,101.5482,25.0441,1
4558,市经济开发区,楚雄州,532301406,2606A,,101.538,25.0492,1
4559,雨过铺(停运170306),红河州,532522407,2607A,,103.3113,23.4626,1
4560,污水处理厂,红河州,532522408,2608A,,103.3772,23.3993,1
4561,监测站,红河州,532522406,2609A,,103.386,23.4168,1
4562,州水务局,文山州,532621431,2610A,,104.2533,23.3594,1
4563,市便民服务中心,文山州,532621432,2611A,,104.2319,23.3892,1
4564,景洪市江南,西双版纳州,532801408,2612A,,100.7939,22.0019,1
4565,景洪市江北,西双版纳州,532801410,2613A,,100.8017,22.0225,1
4566,大理市环境监测站,大理州,532901411,2614A,,100.1542,25.7054,1
4567,大理古城,大理州,532901412,2615A,,100.2171,25.5811,1
4568,德宏州监测站,德宏州,533103420,2616A,,98.5842,24.428,1
4569,芒市建设局(停运200103),德宏州,533103421,2617A,,98.578,24.441,1
4570,州监测站,怒江州,533321051,2618A,,98.8601,25.8567,1
4571,泸水一中,怒江州,533321052,2619A,,98.8546,25.8417,1
4572,古城(20180930停运),迪庆州,533421424,2620A,,99.7064,27.8136,1
4573,迪庆州站,迪庆州,533421434,2621A,,99.7056,27.8317,1
4574,昌都监测站,昌都市,542100051,2622A,,97.1804,31.1278,1
4575,昌都地区昌都坝(停运200514),昌都市,542100052,2623A,defaultStation.jpg,97.1809,31.1254,1
4576,山南监测站,山南市,542200051,2624A,,91.7608,29.2313,1
4577,山南人民医院,山南市,542200052,2625A,,91.7706,29.261,1
4578,日喀则监测站,日喀则市,542300051,2626A,,88.8876,29.2718,1
4579,日喀则鸿达公司(停用200623),日喀则市,542300052,2627A,defaultStation.jpg,88.8931,29.2365,1
4580,那曲监测站,那曲地区,542400051,2628A,,92.0657,31.4846,1
4581,那曲嘉兴医院(停运170919),那曲地区,542400052,2629A,,92.0505,31.4733,1
4582,阿里监测站,阿里地区,542500051,2630A,,80.1161,32.5,1
4583,阿里地委(20181130停用),阿里地区,542500052,2631A,defaultStation.jpg,80.0895,32.5039,1
4584,林芝监测站,林芝市,542600051,2632A,,94.3681,29.6376,1
4585,林芝人民医院,林芝市,542600052,2633A,,94.3616,29.6632,1
4586,汉川机床厂子校(对照点),汉中市,610700004,2634A,,106.9893,33.1842,1
4587,市监测站,汉中市,610700056,2635A,,107.0154,33.0706,1
4588,鑫源开发区,汉中市,610700065,2636A,,107.0089,33.1138,1
4628,南郑大河坎水厂,汉中市,610700066,2637A,,107.007,33.0323,1
4629,红石峡森林公园(对照点),榆林市,610800001,2638A,,109.7414,38.3344,1
4630,世纪广场,榆林市,610800401,2639A,,109.7456,38.2911,1
4631,实验中学,榆林市,610800402,2640A,,109.7289,38.2839,1
4632,环保监测大楼,榆林市,610800403,2641A,,109.7336,38.2478,1
4633,香溪洞(对照点),安康市,610900001,2642A,,109.0311,32.6778,1
4634,安康市监测站,安康市,610900402,2643A,,109.0281,32.6939,1
4635,汉滨区检察院,安康市,610900403,2644A,,109.0072,32.6975,1
4636,监测站,商洛市,611000401,2645A,,109.9154,33.8715,1
4637,东龙山气象局(停运170905),商洛市,611000402,2646A,,109.966,33.8509,1
4638,第三小学,白银市,620400477,2647A,defaultStation.jpg,104.1731,36.5458,1
4639,动力公司,白银市,620400478,2648A,,104.1731,36.5481,1
4640,麦积山(对照点),天水市,620500001,2649A,defaultStation.jpg,106.005,34.3469,1
4641,公园小学,天水市,620500401,2650A,defaultStation.jpg,105.7281,34.5814,1
4642,麦积国土局,天水市,620500402,2651A,defaultStation.jpg,105.8614,34.5653,1
4643,监测站,武威市,620600431,2652A,,102.6219,37.9311,1
4644,雷台(190211停运),武威市,620600433,2653A,,102.6469,37.9358,1
4645,润泉湖,张掖市,620700421,2654A,defaultStation.jpg,100.4686,38.9467,1
4646,区工会,张掖市,620700422,2655A,defaultStation.jpg,100.4497,38.9389,1
4647,聚贤嘉苑,平凉市,620800471,2656A,defaultStation.jpg,106.6692,35.5461,1
4648,博物馆,平凉市,620800572,2657A,,106.7066,35.5304,1
4649,仓门街子站,酒泉市,620900411,2658A,,98.509,39.746,1
4650,油田生活基地,酒泉市,620900412,2659A,defaultStation.jpg,98.5023,39.7294,1
4651,区环保局(对照点)(停运210413),庆阳市,621000036,2660A,defaultStation.jpg,107.6831,35.7289,1
4652,庆阳五中,庆阳市,621000481,2661A,defaultStation.jpg,107.6406,35.5236,1
4653,市环保局,庆阳市,621000482,2662A,,107.6364,35.7067,1
4654,东关小学,定西市,621100441,2663A,defaultStation.jpg,104.6228,35.5714,1
4655,供电公司,定西市,621100442,2664A,defaultStation.jpg,104.6169,35.5975,1
4656,汉王镇固水子(对照点),陇南市,621200035,2665A,,105.0822,33.3261,1
4657,市林业局（已停运）,陇南市,621200461,2666A,,104.9306,33.3861,1
4658,环保局,临夏回族自治州,622900491,2667A,,103.2139,35.6039,1
4659,建设大厦,临夏回族自治州,622900492,2668A,defaultStation.jpg,103.2064,35.5997,1
4660,州政府,甘南州,623000401,2669A,defaultStation.jpg,102.905,35.0003,1
4661,平安县（停运170921）,海东地区,632100051,2670A,,102.1086,36.4997,1
4841,海晏县西海镇,海北藏族自治州,632200051,2671A,,100.9048,36.9639,1
4842,同仁县隆务镇,黄南藏族自治州,632300051,2672A,,102.0199,35.5102,1
4843,共和县恰卜恰镇,海南藏族自治州,632500051,2673A,,100.6188,36.2866,1
4844,玛沁县大武镇,果洛藏族自治州,632600051,2674A,,100.2561,34.4714,1
4845,玉树县结古镇,玉树藏族自治州,632700051,2675A,,97,33.0014,1
4846,德令哈市,海西蒙古族藏族自治州,632800051,2676A,,97.3731,37.3753,1
4847,教育园区,吴忠市,640300062,2677A,,106.1532,37.9648,1
4848,高级中学(停运210422),吴忠市,640300060,2678A,defaultStation.jpg,106.2025,37.9844,1
4849,新区二泵站,吴忠市,640300061,2679A,,106.196,37.9723,1
4850,沙坡头消防站(对照点),中卫市,640500005,2680A,,105.0197,37.4514,1
4851,官桥站(停运210419),中卫市,640500080,2681A,defaultStation.jpg,105.18,37.0172,1
4852,环保局站,中卫市,640500081,2682A,,105.1971,37.5002,1
4853,马园(对照点),固原市,640400004,2683A,,106.2319,36.1417,1
4854,监测站,固原市,640400070,2684A,,106.2792,36.0022,1
4855,新区,固原市,640400071,2685A,,106.2375,36.0211,1
4856,市环保局,吐鲁番地区,652100411,2686A,,89.191,42.9409,1
4857,地区环保局,吐鲁番地区,652100412,2687A,,89.1673,42.9559,1
4858,地区监测站,哈密地区,652200401,2688A,,93.5128,42.8172,1
4859,哈密师范学校,哈密地区,652200402,2689A,,93.4961,42.8328,1
4860,天山天池(对照点),昌吉州,652300001,2690A,,87.9897,44.1564,1
4861,州监测站(停运210421),昌吉州,652300401,2691A,defaultStation.jpg,87.2997,44.0114,1
4862,新区政务中心,昌吉州,652300403,2692A,,87.2717,44.0297,1
4863,市党校,博尔塔拉蒙古自治州,652700001,2693A,defaultStation.jpg,82.0485,44.9079,1
4864,市环保局,博尔塔拉蒙古自治州,652700405,2694A,,82.0806,44.8969,1
4865,电视台,阿克苏地区,652900402,2695A,,80.2828,41.1636,1
4866,艺术中心,阿克苏地区,652900404,2696A,,80.2956,41.1933,1
4867,市人民政府,克孜勒苏柯尔克孜自治州,653000402,2697A,,76.1861,39.7153,1
4868,巡警大队,喀什地区,653100406,2698A,,75.9828,39.5371,1
4869,吾办,喀什地区,653100407,2699A,,75.9771,39.4699,1
4870,市环境监测站,喀什地区,653100408,2700A,,75.9435,39.4365,1
4871,地区站(停运200629),和田地区,653200405,2701A,defaultStation.jpg,79.9485,37.1152,1
4872,古江巴格乡院内(停运200629),和田地区,653200408,2702A,defaultStation.jpg,79.9117,37.1013,1
4873,市环保局,伊犁哈萨克州,654000401,2703A,,81.2815,43.9404,1
4874,新政府片区,伊犁哈萨克州,654000408,2704A,,81.2867,43.895,1
4875,第二水厂,伊犁哈萨克州,654000409,2705A,,81.3364,43.941,1
4876,东门外小游园,塔城地区,654200406,2706A,,82.9994,46.7432,1
4877,小东沟(对照点)(停运210423),阿勒泰地区,654300001,2707A,defaultStation.jpg,88.1214,47.9047,1
4878,市站,阿勒泰地区,654300401,2708A,,88.1267,47.8515,1
4879,艾青诗歌馆,石河子市,659001411,2709A,,86.0497,44.2967,1
4880,阳光学校,石河子市,659001412,2710A,,86.0697,44.3075,1
4540,农水大厦,五家渠市,659004109,2711A,,87.5475,44.1756,1
3237,四十中小,攀枝花市,510400057,2835A,defaultStation.jpg,101.7227,26.567,1
3234,湖里中学,厦门市,350200076,2842A,defaultStation.jpg,118.0936,24.5058,1
3232,德盛苑,长治市,140400057,2845A,defaultStation.jpg,113.1569,36.1912,1
3233,体育西,广州市,440100074,2846A,defaultStation.jpg,113.3208,23.1323,1
3180,河西一经路(启用150702),天津市,120000123,2858A,,117.7918,39.2474,1
3181,津沽路(启用150702),天津市,120000176,2859A,,117.3747,38.9846,1
3179,宾水西道(启用150702),天津市,120000306,2860A,,117.1589,39.0845,1
3182,22中南校区(启用150703),石家庄市,130100063,2862A,,114.5481,38.03778,1
3189,榆次三中,晋中市,140700055,2865A,,112.7194,37.6828,1
3190,外滩首府(停运200901),运城市,140800097,2866A,defaultStation.jpg,111.0522,35.0439,1
3191,马茂庄小学,吕梁市,141100054,2867A,,111.1283,37.51,1
3187,九站,吉林市,220200100,2868A,,126.4739,43.9531,1
3196,市疾控中心,镇江市,321100408,2870A,,119.4369,32.18889,1
3197,万里国际学校,宁波市,330200060,2871A,,121.6147,29.90167,1
3193,南湖区残联,嘉兴市,330400054,2872A,,120.7844,30.7525,1
3192,益益乳业工业园(停运200626),淮南市,340400528,2874A,defaultStation.jpg,117.0412,32.646,1
4503,阜阳职业技术学院,阜阳市,341200467,2875A,,115.7839,32.88922,1
3183,幼特教师范(停用180921),潍坊市,370700061,2876A,,119.0841,36.7339,1
3184,坊子邮政,潍坊市,370700062,2877A,,119.1638,36.6525,1
3194,二十一中,南宁市,450100053,2879A,defaultStation.jpg,108.3102,22.78805,1
3195,大石西路,成都市,510100078,2880A,,104.0239,30.65639,1
4504,凯里学院,黔东南苗族侗族自治州,522600051,2881A,,107.8908,26.53111,1
3185,玉溪一中(启用161222),玉溪市,530400100,2882A,,102.5389,24.3702,1
3186,文体中心(启用161222),玉溪市,530400101,2883A,,102.5381,24.339,1
3188,酒钢宾馆,嘉峪关市,620200063,2884A,,98.26722,39.79778,1
4505,滨江中学,陇南市,621200462,2885A,,104.9338889,33.38256667,1
4506,沈辽西路,沈阳市,210100105,2897A,,123.2444,41.7347,1
4501,裕农路,沈阳市,210100106,2900A,defaultStation.jpg,123.5953,41.9086,1
4500,北辰小学(启用160101),广安市,511600406,2902A,defaultStation.jpg,106.6351,30.4865,1
4496,吴兴区站(启用160104),湖州市,330500054,2907A,defaultStation.jpg,120.1844,30.8596,1
4497,苏山坪(对照点),巴中市,511900002,2914A,defaultStation.jpg,106.7514,31.87889,1
4498,职业中学(停运210416),巴中市,511900412,2915A,defaultStation.jpg,106.7619,31.84139,1
4499,老干部局(停运190815),池州市,341700517,2916A,,117.49,30.66,1
4492,河北工业大学(启用160601),廊坊市,131000409,2919A,defaultStation.jpg,116.7022,39.5453,1
4493,蓝田镇(启用160601),漳州市,350600448,2920A,defaultStation.jpg,117.7116,24.506,1
4494,树下王站(启用160701),绍兴市,330600054,2921A,defaultStation.jpg,120.7789,30.0033,1
4495,大理道(启用160601),天津市,120000307,2922A,defaultStation.jpg,117.1941,39.1067,1
4716,供排水公司(停运200102),大同市,140200089,2923A,defaultStation.jpg,113.2803,40.1114,1
4717,上海东路(启用160703),银川市,640100061,2925A,defaultStation.jpg,106.2739,38.4841,1
4718,文昌北街(启用160703),银川市,640100063,2926A,,106.1024,38.49494,1
4715,红卫路(启用161109),黄冈市,421100053,2929A,,114.8858,30.4519,1
3150,武警支队(停运210101),金华市,330700404,2994A,defaultStation.jpg,119.6533,29.1128,1
3139,市供电局(启用161107),宿迁市,321300409,2996A,defaultStation.jpg,118.283,33.965,1
3140,王营(启用161024),泰州市,321200409,2997A,defaultStation.jpg,119.8767,32.3292,1
3141,胡沟管理处(更换),连云港市,320700055,2998A,defaultStation.jpg,119.3608,34.7519,1
3142,矿山设计院(更换),连云港市,320700056,2999A,defaultStation.jpg,119.1478,34.5911,1
3143,德源药业(启用161021),连云港市,320700057,3000A,defaultStation.jpg,119.3581,34.6972,1
3144,钟楼(更换),常州市,320400107,3001A,defaultStation.jpg,119.8914,31.7897,1
3145,行政中心(启用161026),常州市,320400108,3002A,defaultStation.jpg,119.9736,31.8108,1
3146,经开区(启用161026),常州市,320400109,3003A,defaultStation.jpg,120.0469,31.7694,1
3147,宝龙广场(启用161025),盐城市,320900407,3004A,defaultStation.jpg,120.1631,33.3681,1
3148,鼓楼区政府(启用161026),徐州市,320300084,3005A,defaultStation.jpg,117.1814,34.29,1
3149,铜山区招生办(启用161026),徐州市,320300085,3006A,defaultStation.jpg,117.1694,34.1781,1
3130,胡沟管理处(启用161021),连云港市,320700058,3008A,,119.3608,34.7519,1
3131,矿山设计院(启用161021),连云港市,320700059,3009A,,119.1478,34.5911,1
3132,钟楼(启用161026),常州市,320400110,3010A,defaultStation.jpg,119.8914,31.7897,1
3133,测试直管站,广州市,440100099,3011A,defaultStation.jpg,34.5,55.6,1
3134,西山林语(启用161103),荆门市,420800055,3012A,,112.1908,31.03389,1
3126,歇台子(启用161118),重庆市,500000175,3014A,,106.4959,29.53675,1
3127,龙井湾(启用161118),重庆市,500000176,3015A,defaultStation.jpg,106.4042,29.57278,1
3128,龙洲湾(启用161119),重庆市,500000177,3016A,defaultStation.jpg,106.5506,29.41569,1
4452,备用,天津市,120000500,3017A,defaultStation.jpg,117.2099,39.16969,1
4453,唐尧大酒店(启用161122),临汾市,141000075,3018A,defaultStation.jpg,111.505,36.10139,1
4454,西沙,三沙市,460321015,3019A,,112.3343,16.83739,1
4455,中山北路(启用161122),天津市,120000309,3020A,,117.2099,39.16969,1
4456,濮水河管理处(启用161121),濮阳市,410900405,3021A,defaultStation.jpg,115.0061,35.76806,1
4457,凯旋路小学(停运210426),洛阳市,410300058,3022A,defaultStation.jpg,112.4433,34.6686,1
4444,技师学院(启用161222),清远市,441800403,3025A,defaultStation.jpg,113.0472,23.63444,1
4445,市政府(启用161222),潮州市,445100404,3026A,defaultStation.jpg,116.6183,23.65889,1
4446,青杠林路(启用170114),自贡市,510300103,3027A,defaultStation.jpg,104.7228,29.33972,1
4447,檀木林体育馆(启用170304),自贡市,510300104,3028A,defaultStation.jpg,104.7778,29.36028,1
4448,雅职院,雅安市,511800405,3029A,defaultStation.jpg,103.0369,30.02028,1
4440,培训基地(启用170210),乌鲁木齐市,650100092,3033A,defaultStation.jpg,87.4651,43.4569,1
4441,光明街小学(启用170221),乌兰察布市,150900852,3034A,defaultStation.jpg,113.1076,41.0385,1
4442,北滨河(启用170221),兴安盟,152200528,3035A,defaultStation.jpg,122.0931,46.0707,1
4443,开发区管委会(启用170301),东营市,370500056,3036A,,118.696,37.43445,1
4438,州图书馆(启用170306),红河州,532522409,3038A,defaultStation.jpg,103.3758,23.3682,1
4437,商州区中学(启用170905),商洛市,611000403,3045A,defaultStation.jpg,109.9643,33.8471,1
4436,九龙(启用170419),福州市,350100064,3048A,defaultStation.jpg,119.58,26.0931,1
4434,备用,天津市,120000310,3050A,defaultStation.jpg,117.3916,39.1495,1
4435,西四道(启用170426),天津市,120000308,3051A,defaultStation.jpg,117.3916,39.1495,1
4667,市委党校(启用170505),新乡市,410700404,3054A,defaultStation.jpg,113.5922,35.28385,1
4668,牟平检察院(启用170519),烟台市,370600461,3057A,defaultStation.jpg,121.5992,37.4014,1
4669,银河街(启用170524),赤峰市,150400448,3058A,defaultStation.jpg,119.2654,42.0352,1
4666,国华电力东(启用170601),呼伦贝尔市,150700133,3061A,defaultStation.jpg,119.7512,49.1577,1
4663,莱芜战役纪念馆(启用170603),济南市,371200058,3064A,defaultStation.jpg,117.6983,36.2211,1
4664,州环保局(启用170614),甘孜藏族自治州,513300403,3065A,defaultStation.jpg,101.9533,29.9972,1
4665,九衢泉纯净水厂(启用170613),德州市,371400055,3066A,defaultStation.jpg,116.2714,37.4372,1
4662,工人文化宫,德州市,371400056,3071A,defaultStation.jpg,116.2989,37.445,1
3976,赣县区卫计委(新增200103),赣州市,360721051,3109A,,115.0093,25.8613,1
3977,伍家关(对照点)(启用171013),安顺市,520400002,3122A,defaultStation.jpg,105.9606,26.2611,1
3978,凤凰山(启用171013),安顺市,520400404,3123A,defaultStation.jpg,105.9408,26.2431,1
3979,金钟山(启用171013),安顺市,520400405,3124A,defaultStation.jpg,105.9439,26.2564,1
3980,娄家坡(启用171013),安顺市,520400406,3125A,defaultStation.jpg,105.8983,26.2481,1
3969,那曲会议中心(启用170919),那曲地区,542400053,3128A,defaultStation.jpg,92.0506,31.4797,1
3970,平安高铁新区（停运211219）,海东地区,632100052,3129A,defaultStation.jpg,102.0306,36.5067,1
3966,烟厂(启用171012),张家口市,130700408,3131A,defaultStation.jpg,114.8792,40.7903,1
3967,文明里(启用171013),秦皇岛市,130300059,3132A,defaultStation.jpg,119.5966,39.938,1
3968,市一中（启用170929）,许昌市,411000406,3134A,,113.8172,34.0339,1
3963,龙泉驿区区政府(启用171027),成都市,510100079,3136A,defaultStation.jpg,104.2725,30.5589,1
3964,市委党校(启用180110),眉山市,511400404,3137A,,103.8578,30.0744,1
3965,武陵区永安(启用171130),常德市,430700055,3138A,defaultStation.jpg,111.7153,29.0289,1
3667,鼎城区玉霞(启用171130),常德市,430700056,3139A,defaultStation.jpg,111.6892,28.9881,1
3668,武陵区长庚(启用171201),常德市,430700057,3140A,defaultStation.jpg,111.6625,29.0531,1
3669,信访局(启用171207),安阳市,410500059,3141A,defaultStation.jpg,114.3922,36.0878,1
3670,龙亭公园(启用180109),开封市,410200065,3147A,,114.3442,34.8097,1
3671,区人社局(启用180111),眉山市,511400405,3148A,defaultStation.jpg,103.8286,30.0561,1
3672,笔架山北路(启用180114),黄石市,420200056,3149A,defaultStation.jpg,115.0158,30.1594,1
3664,宜春学院北校区(181229启用),宜春市,362200406,3151A,defaultStation.jpg,114.375,27.8097,1
3663,民族大道182号(启用180213),武汉市,420100077,3153A,,114.3877,30.4908,1
3662,广陵建设局(启用180626),扬州市,321000412,3164A,,119.4686,32.3942,1
3659,太极体育中心(启用180720),焦作市,410800062,3169A,,113.2725,35.2067,1
3660,市委党校(启用180727),金昌市,620300405,3170A,defaultStation.jpg,102.1864,38.5253,1
3661,梁园区档案局(20190220启用),商丘市,411400405,3171A,defaultStation.jpg,115.6125,34.445,1
3657,市人大(启用180816),安庆市,340800086,3173A,,117.0594,30.5342,1
3658,测试站点,安庆市,340800087,3174A,defaultStation.jpg,117.0594,30.5342,1
3656,潍坊七中(启用180921),潍坊市,370700063,3178A,defaultStation.jpg,119.0586,36.7225,1
4067,官渡区博物馆(180930启用),昆明市,530100059,3179A,,102.7494,25.0119,1
4026,丽阳花园(启用181029),巴中市,511900413,3182A,defaultStation.jpg,106.7658,31.8542,1
4027,圣泉水务公司(启用181029),巴中市,511900414,3183A,defaultStation.jpg,106.7417,31.8653,1
4028,市委党校,哈尔滨市,230100090,3184A,defaultStation.jpg,126.6203,45.7219,1
4029,巨轮(启用181031),太原市,140100064,3185A,defaultStation.jpg,112.5628,37.8964,1
4030,教育港(启用181115),兰州市,620100055,3186A,defaultStation.jpg,103.7583,36.1058,1
4031,远航博物馆（20181204启用）,宿州市,341300523,3187A,defaultStation.jpg,116.951,33.666,1
4032,市城管局（20181124启用）,衡水市,131100409,3188A,defaultStation.jpg,115.6689,37.739,1
4024,宿豫区政府(20181206启用）,宿迁市,321300410,3191A,defaultStation.jpg,118.3225,33.9447,1
4025,阿里藏医院(20181130启用),阿里地区,542500053,3192A,defaultStation.jpg,80.0903,32.5028,1
4020,管委会(启用181220),荆州市,421000057,3194A,defaultStation.jpg,112.2747,30.3122,1
4021,市体育局(181219启用),扬州市,321000413,3195A,defaultStation.jpg,119.3633,32.3972,1
4018,监控中心(20190222启用),聊城市,371500062,3200A,defaultStation.jpg,115.9819,36.4978,1
4019,东关招商场(190211启用),武威市,620600434,3201A,defaultStation.jpg,102.6486,37.9325,1
4013,规划局(20190304启用),平顶山市,410400060,3204A,defaultStation.jpg,113.3025,33.7297,1
4014,高新区(未启用),太原市,140100065,3205A,defaultStation.jpg,112.4783,37.7778,1
4015,新钢沁园村(20190301启用),新余市,360500408,3206A,defaultStation.jpg,114.9149,27.807,1
4016,市政府原办公楼(20190308启用),滁州市,341100478,3207A,defaultStation.jpg,118.3117,32.3039,1
4017,市政府(20190313启用),忻州市,140900108,3208A,defaultStation.jpg,112.7283,38.4153,1
3712,宁德一中(20190319启用),宁德市,350900053,3209A,defaultStation.jpg,119.5228,26.6564,1
3713,汴京公园(20190322启用),开封市,410200071,3210A,defaultStation.jpg,114.3644,34.7964,1
3709,漳州党校(20190503启用),漳州市,350600451,3216A,defaultStation.jpg,114.6622,24.5183,1
3710,站房一(先河设备),站房一,110001101,3217A,defaultStation.jpg,116.419,40.0418,1
3714,展览馆(190815启用),池州市,341700518,3237A,defaultStation.jpg,117.4916,30.6619,1
3715,济民医院（见备注）,芜湖市,340200021,3238A,defaultStation.jpg,118.3954,31.3946,1
3716,银鹰制药(20190903启用),辽源市,220400406,3239A,defaultStation.jpg,125.0829,42.9079,1
3700,百合公园(新增191227),兰州市,620100603,3241A,defaultStation.jpg,103.7439,36.0842,1
3701,和平(新增200315),兰州市,620123613,3242A,defaultStation.jpg,103.9611,35.998,1
3704,新区管委会(新增191218),兰州新区,620100618,3245A,defaultStation.jpg,103.6633,36.533,1
3705,舟曲中学(新增200310),兰州新区,620121620,3246A,defaultStation.jpg,103.6975,36.4789,1
3706,市总工会(新增191221),陇南市,621200601,3247A,defaultStation.jpg,104.955,33.371,1
3707,雄关区(新增191225),嘉峪关市,620200602,3248A,defaultStation.jpg,98.2643,39.7724,1
4393,巩义老环保局(联网试点),郑州市,41018102,3262A,defaultStation.jpg,112.9833,34.7333,1
4305,宝山庙行(新增200109),上海市,310113003,3265A,defaultStation.jpg,121.4316,31.3322,1
4306,崇明上实东滩(新增191229),上海市,310151005,3266A,defaultStation.jpg,121.8791,31.4662,1
4308,嘉定南翔(新增191229),上海市,310114004,3268A,defaultStation.jpg,121.3162,31.2838,1
4309,金山新城(新增200113),上海市,310116001,3269A,defaultStation.jpg,121.3359,30.7456,1
4310,闵行浦江(新增200109),上海市,310112003,3270A,defaultStation.jpg,121.4996,31.0739,1
4311,青浦徐泾(新增191229),上海市,310118004,3271A,defaultStation.jpg,121.2886,31.1663,1
4312,松江图书馆(新增200109),上海市,310117001,3272A,defaultStation.jpg,121.2186,31.0378,1
4313,长宁仙霞(新增200107),上海市,310105001,3273A,defaultStation.jpg,121.3902,31.2059,1
4314,浦东惠南(新增191229),上海市,310115002,3274A,defaultStation.jpg,121.7965,31.0507,1
4345,延庆夏都(新增200604),北京市,110000263,3281A,defaultStation.jpg,115.9846,40.4608,1
4346,大同市卫生学校(新增200709),大同市,140200091,3282A,defaultStation.jpg,113.3397,40.0597,1
4347,滨河大厦(新增191226),包头市,150200088,3283A,,109.9154,40.5685,1
4348,海北新区(新增200607),乌海市,150300464,3284A,defaultStation.jpg,106.813,39.7274,1
4349,北京八中(新增200602),乌兰察布市,150900853,3285A,defaultStation.jpg,113.1376,40.9509,1
4350,桥北物流园区(新增200522),赤峰市,150400051,3286A,defaultStation.jpg,118.9478,42.3233,1
4351,富润路1号(新增200617),镇江市,321100416,3287A,defaultStation.jpg,119.3842,32.1976,1
3604,大泉街道(新增200422),徐州市,320300088,3288A,defaultStation.jpg,117.4632,34.4369,1
3605,方洲路(新增200101),苏州市,320500065,3289A,,120.743,31.3188,1
3606,木渎中学(新增200110),苏州市,320500066,3290A,defaultStation.jpg,120.5031,31.2774,1
3607,通州监测站(新增200116),南通市,320600082,3291A,,121.067,32.062,1
3608,月亮广场(新增191226),盐城市,320900408,3293A,,120.1501,33.3367,1
3609,引江管理处(新增191231),扬州市,321000414,3294A,,119.5653,32.4222,1
3610,姜堰区政府广场(新增200107),泰州市,321200410,3295A,,120.1259,32.5099,1
3612,从化街口(新增200102),广州市,440117012,3298A,defaultStation.jpg,113.5717,23.5491,1
3613,白云竹料(新增200102),广州市,440111003,3299A,defaultStation.jpg,113.3472,23.3692,1
3614,白云嘉禾(新增200103),广州市,440100920,3300A,,113.2981,23.237,1
3615,黄埔科学城(新增200106),广州市,440100921,3301A,,113.4256,23.1716,1
3616,番禺大学城(新增200104),广州市,440113001,3302A,,113.3942,23.0483,1
3617,南沙黄阁(新增191231),广州市,440115005,3303A,,113.4922,22.8168,1
3618,南沙街(新增200102),广州市,440100924,3304A,defaultStation.jpg,113.5342,22.7896,1
3619,莲花(新增191224),深圳市,440300914,3305A,,114.0731,22.559,1
3620,民治(新增191224),深圳市,440300915,3306A,,114.0261,22.6198,1
3621,横岗(新增191224),深圳市,440300917,3307A,,114.1871,22.6451,1
3622,金湾(新增191225),珠海市,440400902,3308A,,113.3494,22.0569,1
3624,江海富民(新增191229),江门市,440704001,3311A,,113.1075,22.5647,1
3625,高要湖西(新增191223),肇庆市,441204001,3313A,,112.4575,23.0166,1
3626,惠阳秋长(新增200109),惠州市,441300914,3314A,,114.4338,22.8134,1
3627,梅龙(新增191226),梅州市,441400914,3315A,,116.1233,24.2991,1
3628,两阳中学(新增200109),阳江市,441700914,3317A,defaultStation.jpg,111.9765,21.8947,1
3629,清新太和(新增191229),清远市,441800914,3318A,,112.9903,23.7403,1
3630,万江金泰(新增191223),东莞市,441900914,3319A,,113.7338,23.0381,1
3631,曲溪(新增200108),揭阳市,445203054,3320A,,116.403,23.5699,1
3634,青少年活动中心(新增200108),张家口市,130700100,3323A,,115.2773,40.9724,1
3635,河北水利电力学院(新增191226),沧州市,130900100,3324A,,116.8136,38.3004,1
3636,雍阳西道(新增191229),天津市,120000313,3325A,,117.0365,39.3828,1
3637,辛老路(新增191229),天津市,120000315,3326A,,117.0296,39.0605,1
3638,地纬路(新增191229),天津市,120000316,3327A,,116.9638,38.9375,1
3639,市气象局(新增200625),芜湖市,340200449,3328A,defaultStation.jpg,118.4209,31.3707,1
3640,山南新区(新增200624),淮南市,340403001,3329A,defaultStation.jpg,117.0108,32.5893,1
3641,杜集区检察院(新增200112),淮北市,340600452,3330A,,116.8873,33.9836,1
3642,图书馆(新增200429),滁州市,341100479,3331A,defaultStation.jpg,118.3267,32.2634,1
3643,亳州学院(新增191231),亳州市,341600513,3332A,,115.7633,33.8034,1
3644,第八中学(新增200413),池州市,341700051,3333A,defaultStation.jpg,117.5627,30.695,1
3645,第十二中学(新增200413),池州市,341700052,3334A,defaultStation.jpg,117.5038,30.6243,1
3646,马村街道办(新增191226),焦作市,410800064,3335A,,113.3137,35.2641,1
3647,焦作技师学院(新增200110),焦作市,410800065,3336A,,113.2465,35.2373,1
3648,许昌学院(新增200103),许昌市,411000407,3337A,,113.8614,34.0442,1
3649,芙蓉广场(新增200103),许昌市,411000408,3338A,,113.843,34.0823,1
3650,小管楼(新增200607),驻马店市,411700407,3339A,defaultStation.jpg,114.0012,33.0412,1
3651,伊滨(新增200629),洛阳市,410300063,3340A,defaultStation.jpg,112.6005,34.6326,1
3652,中移产业园(新增200624),洛阳市,410300060,3341A,defaultStation.jpg,112.4951,34.6332,1
3653,中心小学(新增200316),伊春市,230700054,3342A,,128.4741,47.4346,1
3654,检察院(新增200316),伊春市,230700055,3343A,,128.6871,47.7369,1
4254,双子河社区(新增200107),伊春市,230700056,3344A,,128.8431,47.8474,1
4255,中波台(新增200115),七台河市,230900067,3345A,,131.0577,45.7879,1
4256,安康(新增191231),重庆市,500000219,3346A,,108.3872,31.1628,1
4257,北山路(新增191229),重庆市,500000209,3347A,,105.9017,29.3569,1
4258,春阳街(新增200111),重庆市,500000237,3348A,,105.839,30.1946,1
4259,人民东路(新增191230),重庆市,500000221,3349A,,107.7983,30.6758,1
4260,滩子口(新增191224),重庆市,500000228,3350A,,106.6479,29.0244,1
4261,棠香(新增191228),重庆市,500000206,3351A,,105.7167,29.7076,1
4262,桃源西路(新增191229),重庆市,500000258,3352A,,107.0732,29.8617,1
4263,迎宾大道(新增191229),重庆市,500000215,3353A,,107.3535,29.7287,1
4264,舟白(新增200109),重庆市,500000231,3354A,,108.815,29.5081,1
4265,周家坝(新增191231),重庆市,500000243,3355A,,108.3679,30.8426,1
4266,百安坝(新增191230),重庆市,500000244,3356A,,108.4319,30.7555,1
4267,金博路(新增191230),成都市,510100061,3357A,,104.0106,30.6931,1
4268,临江路(新增191229),成都市,510100063,3358A,,103.8458,30.6994,1
4269,华阳(新增191229),成都市,510100068,3359A,,104.0578,30.5225,1
4270,南湖救助站(新增191230),自贡市,510300053,3360A,,104.7894,29.3194,1
4271,理工大学(新增191227),乐山市,511100052,3361A,defaultStation.jpg,103.7311,29.5628,1
4272,即墨2号(新增200331),青岛市,370200053,3362A,defaultStation.jpg,120.5014,36.4034,1
4273,新区(新增200111),淄博市,370300908,3363A,,117.9883,36.8372,1
4274,市环保局(新增191216),枣庄市,370400906,3364A,,117.3152,34.8103,1
4275,垦利区民丰路(新增200317),东营市,370500061,3365A,defaultStation.jpg,118.5719,37.565,1
4276,中国农业大学(新增200316),烟台市,370600911,3366A,,121.5206,37.4336,1
4277,高新实验学校(新增191206),潍坊市,370700057,3368A,,119.1977,36.6872,1
4279,开发区幼儿园(停运211119),临沂市,371300906,3369A,defaultStation.jpg,118.3977,35.0278,1
4278,十里堡居委(新增200107),临沂市,371300907,3370A,,118.3564,35.0215,1
4315,开发区人民医院(新增200108),德州市,371400906,3371A,,116.3728,37.4403,1
4316,太阳城中学(新增200108),德州市,371400907,3372A,,116.3572,37.4094,1
4318,定陶老年大学(新增200109),菏泽市,371700907,3374A,,115.5564,35.0891,1
4319,青年创业园(新增191223),昆明市,530100060,3375A,defaultStation.jpg,102.8017,24.8336,1
4320,南苑二区(新增200316),曲靖市,530300053,3376A,,103.7947,25.462,1
4321,曲靖师范学院(新增200111),曲靖市,530300054,3377A,,103.7444,25.5261,1
4322,老边实验中学(新增200104),营口市,210800411,3378A,,122.371,40.6771,1
4323,鲅鱼圈市民活动中心(新增191224),营口市,210800413,3379A,,122.1139,40.2278,1
4324,甘肃民族师范学院(新增200422),甘南州,623000081,3380A,defaultStation.jpg,102.8914,34.9617,1
4329,襄城隆中路(新增191227),襄阳市,420600409,3396A,,112.0828,32.0067,1
4330,高新台子湾(新增191227),襄阳市,420600408,3397A,,112.1214,32.1008,1
4331,市林业局(新增200629),黄冈市,421100055,3398A,defaultStation.jpg,114.9136,30.4445,1
4332,师范学院(新增200624),衡阳市,430400009,3399A,defaultStation.jpg,112.6703,26.882,1
4333,龙潭自来水厂(新增191224),北海市,450500118,3400A,,109.1911,21.4415,1
4334,红星社区(新增191227),南宁市,450100058,3401A,,108.4834,22.7618,1
4335,市二中(新增191230),柳州市,450200411,3402A,,109.5422,24.3996,1
4336,创业大厦(新增200106),桂林市,450300051,3403A,,110.1764,25.2381,1
4337,北职校(新增191227),钦州市,450700573,3404A,,108.5959,21.9633,1
4338,新世纪学校(新增191231),贵港市,450800573,3405A,,109.5886,23.1172,1
4339,祈福高中(新增200114),百色市,451000053,3406A,,106.6085,23.8798,1
4340,秀洲住建(新增200320),嘉兴市,330400605,3407A,defaultStation.jpg,120.6916,30.7739,1
4341,绍兴中专(新增200113),绍兴市,330600056,3408A,,120.5683,29.9361,1
4342,柯桥区政府(新增200106),绍兴市,330600057,3409A,,120.4906,30.0861,1
4343,重华小学(新增200106),绍兴市,330600059,3410A,,120.8752,30.0249,1
4344,上虞中学(新增200402),绍兴市,330600060,3411A,defaultStation.jpg,120.8369,30.0137,1
4280,广丰区教体局(新增191231),上饶市,361100052,3413A,defaultStation.jpg,118.1953,28.4401,1
4281,桑海产业园(新增191231),赣江新区,360100056,3414A,defaultStation.jpg,115.8347,28.932,1
4282,万载县环保局(新增200102),宜春市,360900051,3415A,defaultStation.jpg,114.4519,28.0828,1
4283,潍坊学院(新增191204）,潍坊市,370700910,3416A,defaultStation.jpg,119.1755,36.7149,1
3455,平谷新城(新增200604),北京市,110000261,3417A,defaultStation.jpg,117.0854,40.1535,1
3447,密云新城(新增200604),北京市,110000262,3418A,defaultStation.jpg,116.84,40.3844,1
4762,包头市委党校(新增191226),包头市,150200089,3419A,defaultStation.jpg,109.9447,40.6261,1
4750,市委党校(新增200313),乌兰察布市,150900054,3421A,defaultStation.jpg,113.1775,40.9779,1
4755,江宁彩虹桥(新增200305),南京市,320100069,3422A,defaultStation.jpg,118.8436,31.9198,1
3438,溧水永阳(新增200421),南京市,320100071,3423A,defaultStation.jpg,119.0138,31.6494,1
4734,高淳老职中(新增200515),南京市,320100072,3424A,defaultStation.jpg,118.879,31.3302,1
3474,越秀幼儿园(新增200109),苏州市,320500068,3425A,defaultStation.jpg,120.624,31.1733,1
4742,新华书店(新增200117),淮安市,320800415,3426A,defaultStation.jpg,118.8755,33.2894,1
3441,六合雄州(新增200515),南京市,320100070,3427A,defaultStation.jpg,118.8554,32.3578,1
3473,华庄(新增200701),无锡市,320200113,3428A,defaultStation.jpg,120.3142,31.4753,1
3476,武进经发区(新增200107),常州市,320400111,3429A,defaultStation.jpg,119.8598,31.7066,1
4756,金坛城区(新增200331),常州市,320400112,3430A,defaultStation.jpg,119.5826,31.7245,1
4671,高铁新城(新增200101),苏州市,320500067,3431A,defaultStation.jpg,120.6505,31.416,1
4295,环境教育馆(新增200112),南通市,320600083,3432A,defaultStation.jpg,120.9348,31.9883,1
4738,工贸学校(新增200331),连云港市,320700061,3434A,defaultStation.jpg,119.2413,34.6539,1
4736,周山河街区(新增200615),泰州市,321200411,3435A,defaultStation.jpg,119.919,32.432,1
4299,大丰高级中学(新增191231),盐城市,320900409,3436A,defaultStation.jpg,120.4279,33.205,1
4298,达坂城区环保局(新增200108),乌鲁木齐市,650107216,3437A,defaultStation.jpg,88.3118,43.3658,1
3446,红光山片区(新增200114),乌鲁木齐市,650109202,3438A,defaultStation.jpg,87.6162,43.8801,1
3469,新师大温泉校区(新增200109),乌鲁木齐市,650105302,3439A,defaultStation.jpg,87.7024,43.8004,1
4758,大绿谷(新增200104),乌鲁木齐市,650106301,3440A,defaultStation.jpg,87.4921,43.8411,1
3475,经开区管委会(新增200101),五家渠市,659004110,3441A,defaultStation.jpg,87.546,44.1912,1
3467,南区管委会(新增200102),石河子市,659001413,3442A,defaultStation.jpg,86.047,44.2331,1
4744,花都梯面(新增200103),广州市,440114403,3443A,defaultStation.jpg,113.2902,23.5544,1
4294,潮南峡山(新增191226),汕头市,440500915,3444A,defaultStation.jpg,116.454,23.2684,1
4297,从化良口(新增200103),广州市,440117004,3445A,defaultStation.jpg,113.7858,23.7478,1
4689,增城荔城(新增200103),广州市,440118001,3446A,defaultStation.jpg,113.8051,23.2614,1
3457,坪山(新增191225),深圳市,440300916,3447A,defaultStation.jpg,114.3551,22.7151,1
4740,横琴(新增191226),珠海市,440404901,3448A,defaultStation.jpg,113.5433,22.1163,1
4673,新会银湖(新增191228),江门市,440705001,3449A,defaultStation.jpg,113.0486,22.4656,1
4719,电白水东(新增191227),茂名市,440904001,3450A,defaultStation.jpg,111.01,21.5165,1
4720,鼎湖凤凰(新增191227),肇庆市,441203004,3451A,defaultStation.jpg,112.5617,23.2083,1
4301,大亚湾霞涌(新增200104),惠州市,441300915,3452A,defaultStation.jpg,114.6517,22.775,1
4680,阳东陶然(新增191228),阳江市,441723001,3453A,defaultStation.jpg,112.0125,21.8749,1
4284,中山南区(新增191229),中山市,442000915,3454A,defaultStation.jpg,113.3528,22.478,1
3462,清城东城(新增191230),清远市,441800915,3455A,defaultStation.jpg,113.076,23.7198,1
3445,鹿泉一中(新增200111),石家庄市,130100100,3456A,defaultStation.jpg,114.289,38.0906,1
4292,冀东油田职工医院(新增191227),唐山市,130200056,3457A,defaultStation.jpg,118.4359,39.2762,1
4727,香泉濮院小区(新增191230),邯郸市,130400100,3458A,defaultStation.jpg,114.7895,36.5593,1
4753,地表水厂(新增191230),衡水市,131100100,3459A,defaultStation.jpg,115.5989,37.5491,1
4752,北环路(新增191229),天津市,120000311,3460A,defaultStation.jpg,117.4067,40.0583,1
4288,建设路(新增191229),天津市,120000312,3461A,defaultStation.jpg,117.3045,39.7169,1
3453,滨水东路(新增191229),天津市,120000314,3462A,defaultStation.jpg,117.8199,39.3521,1
4684,社会福利中心(新增200624),宿州市,341300524,3463A,defaultStation.jpg,116.9708,33.591,1
4674,高教基地(新增191231),合肥市,340100301,3464A,defaultStation.jpg,117.3803,31.9147,1
4761,清苑社区(新增200625),芜湖市,340200447,3465A,defaultStation.jpg,118.4781,31.3225,1
3466,扬子职业技术学院(新增200625),芜湖市,340200448,3466A,defaultStation.jpg,118.2746,31.2326,1
4683,市规划展馆(新增200109),阜阳市,341200201,3468A,defaultStation.jpg,115.7901,32.8613,1
4682,枣园社区(新增200204),阜阳市,341200202,3469A,defaultStation.jpg,115.836,32.9183,1
4677,夏渡子站(新增200601),宣城市,341800601,3470A,defaultStation.jpg,118.7724,30.9141,1
4747,惠济区政府(新增200409),郑州市,410100012,3471A,defaultStation.jpg,113.616563,34.86783,1
3443,技师学院(新增200706),开封市,410200075,3473A,defaultStation.jpg,114.2485,34.8306,1
3459,大新区(新增191231),鹤壁市,410600404,3474A,defaultStation.jpg,114.2617,35.6822,1
4741,市政府(新增191227),新乡市,410700405,3475A,defaultStation.jpg,113.9188,35.3045,1
3449,河师大(新增200624),新乡市,410700406,3476A,defaultStation.jpg,113.9152,35.333,1
4692,中站许衡医院(新增191226),焦作市,410800063,3477A,defaultStation.jpg,113.1656,35.2539,1
4687,市图书馆(新增200119),漯河市,411100105,3478A,defaultStation.jpg,113.9749,33.5664,1
4691,召陵区卫健委(新增200119),漯河市,411100106,3479A,defaultStation.jpg,114.0967,33.5906,1
4681,美溪镇(新增200316),伊春市,230700057,3480A,defaultStation.jpg,129.1368,47.6417,1
3465,萨区政府监测点(新增200102),大庆市,230600083,3481A,defaultStation.jpg,125.141,46.634,1
3477,芙蓉中路(新增191228),重庆市,500000250,3482A,defaultStation.jpg,107.7541,29.3277,1
3460,西山(新增200109),重庆市,500000230,3483A,defaultStation.jpg,108.7661,29.5368,1
4754,行政中心(新增200111),重庆市,500000116,3484A,defaultStation.jpg,106.2628,29.32,1
3451,高寺路(新增200103),重庆市,500000223,3485A,defaultStation.jpg,107.0944,29.1608,1
4759,植物园(新增200430),四平市,220303001,3486A,defaultStation.jpg,124.4059,43.141,1
3442,车城东七路(新增191227),成都市,510100065,3487A,defaultStation.jpg,104.2394,30.5319,1
3461,青白江技师分院(新增191230),成都市,510100066,3488A,defaultStation.jpg,104.3853,30.7453,1
3468,科学城(新增191228),成都市,510100067,3489A,defaultStation.jpg,104.0789,30.4072,1
3450,纳溪区环保局(新增191226),泸州市,510500051,3490A,defaultStation.jpg,105.3617,28.7703,1
4730,西科大附属小学(新增191230),绵阳市,510700055,3491A,defaultStation.jpg,104.69,31.5322,1
4731,安州区旅游局(新增191231),绵阳市,510700057,3492A,defaultStation.jpg,104.5648,31.5343,1
4751,济阳区政府(新增191219),济南市,370125802,3494A,defaultStation.jpg,117.1673,36.9782,1
3437,锦屏中学(新增200108),济南市,370100060,3495A,defaultStation.jpg,117.1171,36.63,1
3436,南坊新区(新增200109),临沂市,371300908,3496A,defaultStation.jpg,118.3604,35.1084,1
4739,河口城区(新增191224),东营市,370500901,3498A,defaultStation.jpg,118.5055,37.8612,1
3464,北湖一中(新增200624),济宁市,370800904,3500A,defaultStation.jpg,116.5814,35.3707,1
4678,服务中心(新增200511),济宁市,370800910,3501A,defaultStation.jpg,116.8249,35.5593,1
3470,国网新校(新增200401),泰安市,370900904,3502A,defaultStation.jpg,117.1812,36.2275,1
4302,交通技校(新增200401),泰安市,370900907,3503A,defaultStation.jpg,117.0405,36.2013,1
4303,山东第一医科大学(新增200623),泰安市,370900906,3504A,defaultStation.jpg,117.0829,36.13,1
4745,临港区管委会(新增200107),威海市,371000901,3505A,defaultStation.jpg,122.1379,37.3414,1
4723,职业技术学院(新增191226),日照市,371100904,3507A,defaultStation.jpg,119.5328,35.4625,1
3440,陵城艺术中心(新增191228),德州市,371400902,3511A,defaultStation.jpg,116.5652,37.3319,1
4721,华润纺织(新增200309),聊城市,371530801,3512A,defaultStation.jpg,116.049,36.4674,1
4722,九州社区(新增200303),聊城市,371530802,3513A,defaultStation.jpg,116.0445,36.4361,1
4289,中海酒店(新增191229),滨州市,371600904,3514A,defaultStation.jpg,117.9378,37.3956,1
4290,开发区一中(新增191229),滨州市,371600906,3515A,defaultStation.jpg,117.9378,37.3553,1
4690,金海六路(新增200102),滨州市,371600907,3516A,defaultStation.jpg,118.0917,37.694,1
4300,妇女儿童医院(新增200119),石嘴山市,640200054,3520A,defaultStation.jpg,106.3495,38.9836,1
4748,石大公路(新增200424),石嘴山市,640200055,3521A,defaultStation.jpg,106.7492,39.2069,1
4686,原州区十五小(新增200831),固原市,640400052,3522A,defaultStation.jpg,106.2177,35.9959,1
4676,滨河新区(新增200112),银川市,640100064,3523A,defaultStation.jpg,106.5105,38.3856,1
4743,文体局(新增200102),西安市,610125051,3524A,defaultStation.jpg,108.6116,34.1164,1
3472,奥体中心(新增200102),咸阳市,610402056,3525A,defaultStation.jpg,108.6396,34.4078,1
4293,吴航(新增200117),福州市,350100065,3526A,defaultStation.jpg,119.5189,25.9664,1
4749,集美中学(新增200106),厦门市,350200077,3527A,defaultStation.jpg,118.0958,24.5688,1
3471,同安二实小(新增200318),厦门市,350200078,3528A,defaultStation.jpg,118.1493,24.7245,1
4728,城华南路(新增200110),泉州市,350500054,3529A,defaultStation.jpg,118.6333,24.9264,1
4670,西洋坪路(新增200103),漳州市,350600052,3530A,defaultStation.jpg,117.6296,24.5314,1
4679,旅游学院(新增200120),桂林市,450300053,3531A,defaultStation.jpg,110.296,25.1253,1
4685,玉林师范学院东校区(新增200120),玉林市,450900570,3532A,defaultStation.jpg,110.1945,22.6831,1
4732,福绵环保局(新增191223),玉林市,450900571,3533A,defaultStation.jpg,110.0527,22.5893,1
3456,西湾(新增200102),贺州市,451100576,3534A,defaultStation.jpg,111.4744,24.4553,1
4675,兴宾区政府(新增191226),来宾市,451300578,3535A,defaultStation.jpg,109.1781,23.7297,1
4291,第十二小学(新增191223),遵义市,520300403,3536A,defaultStation.jpg,106.8547,27.5919,1
3458,长征村(新增191230),毕节市,520500406,3537A,defaultStation.jpg,105.3631,27.3533,1
4724,沙坝(新增200107),黔南布依族苗族自治州,522700403,3538A,defaultStation.jpg,107.5175,26.2978,1
3463,桂林洋子站(新增200108),海口市,460100626,3539A,defaultStation.jpg,110.5111,19.9736,1
4737,君悦子站(新增200108),三亚市,460200627,3540A,defaultStation.jpg,109.7348,18.3443,1
4285,第一中学子站(新增200211),儋州市,460400629,3541A,defaultStation.jpg,109.5726,19.5167,1
4286,东坡学校子站(新增200426),儋州市,460400630,3542A,defaultStation.jpg,109.5671,19.5232,1
4287,永兴岛子站(145),三沙市,460300628,3543A,defaultStation.jpg,112.3466,16.8396,1
4729,奉贤南桥新城(新增200108),上海市,310120003,3544A,defaultStation.jpg,121.4891,30.925,1
4688,郧阳区金沙路(新增200625),十堰市,420300402,3545A,defaultStation.jpg,110.8054,32.8401,1
4672,V亭区张家湾站(新增200113),宜昌市,420500412,3546A,defaultStation.jpg,111.4606,30.552,1
4725,龙泉中学南校(新增191229),荆门市,420800405,3547A,defaultStation.jpg,112.1632,31.0138,1
4760,学苑路(新增200824),荆州市,421000058,3548A,defaultStation.jpg,112.1655,30.3364,1
4726,龙凤新区(新增200113),恩施土家族苗族自治州,422800409,3549A,defaultStation.jpg,109.5061,30.3772,1
4735,昆明学院(新增191222),昆明市,530100061,3550A,defaultStation.jpg,102.7997,24.9786,1
4757,晋宁区生态环境分局(新增191223),昆明市,530100051,3551A,defaultStation.jpg,102.5967,24.6736,1
3478,云天化总部(新增191226),昆明市,530100053,3552A,defaultStation.jpg,102.6678,24.9856,1
4733,镇二中(新增200113),杭州市,330100064,3557A,defaultStation.jpg,119.9464,30.0494,1
3439,市府大楼(新增200113),杭州市,330100065,3558A,defaultStation.jpg,119.7183,30.2367,1
4763,柯桥妇保(新增200114),绍兴市,330600058,3560A,defaultStation.jpg,120.4722,30.0415,1
3454,茶山(新增191227),温州市,330300057,3561A,defaultStation.jpg,120.6985,27.9251,1
3452,南浔区站(新增200313),湖州市,330500055,3562A,defaultStation.jpg,120.4184,30.8538,1
4746,台州科技职业学院(新增200930),台州市,331000054,3564A,defaultStation.jpg,121.2568,28.6681,1
4700,云冈站(新增200703),大同市,140211252,3565A,defaultStation.jpg,113.1367,40.1122,1
4699,图书馆(新增200702),大同市,140212253,3566A,defaultStation.jpg,113.1186,40.2566,1
4701,区一中(新增200525),大同市,140227253,3567A,defaultStation.jpg,113.5931,40.0461,1
4697,向阳小学(新增191229),长治市,140421254,3568A,,113.06,36.0464,1
4698,屯留一中(新增191228),长治市,140424251,3569A,,112.8792,36.3144,1
4696,潞城四中(新增200105),长治市,140481254,3570A,,113.235,36.3489,1
4713,一水厂(新增200617),朔州市,140603253,3571A,defaultStation.jpg,112.2931,39.53,1
4712,栾城区政府(新增200827),石家庄市,130111100,3572A,defaultStation.jpg,114.6419,37.9002,1
4710,藁城区实验学校(新增200708),石家庄市,130109100,3573A,defaultStation.jpg,114.8507,38.0322,1
4711,井陉矿区区委大楼(新增200821),石家庄市,130107100,3574A,defaultStation.jpg,114.05,38.0591,1
4714,正泰大街热力站(新增200731),唐山市,130207100,3575A,defaultStation.jpg,118.0928,39.5809,1
3912,丰润区政府(新增200520),唐山市,130208100,3576A,defaultStation.jpg,118.1685,39.8386,1
3913,金山小学(新增200731),唐山市,130204100,3577A,defaultStation.jpg,118.4379,39.7375,1
3914,政府服务中心(新增200731),唐山市,130205100,3578A,defaultStation.jpg,118.2449,39.6693,1
4703,永年区实验高中(新增200517),邯郸市,130429100,3579A,defaultStation.jpg,114.5063,36.7717,1
4702,峰峰矿区临水派出所(新增200709),邯郸市,130406101,3580A,defaultStation.jpg,114.2126,36.449,1
4693,满城区生态环境分局(新增200709),保定市,130607100,3581A,defaultStation.jpg,115.3264,38.9581,1
4694,清苑区第二中学(新增200801),保定市,130608100,3582A,defaultStation.jpg,115.4835,38.7699,1
4695,徐水物探局(新增200709),保定市,130609100,3583A,defaultStation.jpg,115.6291,39.0231,1
3922,容城县环境保护局(新增200113),雄安新区,130629100,3584A,,115.8844,39.0341,1
3923,河北容城中学(新增200113),雄安新区,130629101,3585A,,115.8665,39.0645,1
3920,安新县民政局(新增200629),雄安新区,130632100,3586A,defaultStation.jpg,115.9236,38.9405,1
3921,安新县电力局(新增200113),雄安新区,130632101,3587A,,115.9324,38.9338,1
3924,雄县环境保护局(新增200113),雄安新区,130638100,3588A,,116.0901,38.9816,1
3925,雄县国土资源局(新增200113),雄安新区,130638101,3589A,,116.1105,39.0046,1
